address,country,lat,long,
# 1 LOFT,Singapore,1.312877,103.883538,
# 1 SUITES,Singapore,1.312475,103.881544,
1 CANBERRA,Singapore,1.438165,103.830079,
1 KING ALBERT PARK,Singapore,1.336616,103.780255,
1 MOULMEIN RISE,Singapore,1.319188,103.847179,
1 NASSIM,Singapore,1.306917,103.826879,
10 SHELFORD,Singapore,1.32591,103.812499,
100 AM,Singapore,1.274929,103.843549,
105 LORONG G,Singapore,1.31822,103.913093,
11 AMBER ROAD,Singapore,1.299146,103.899208,
111 EMERALD HILL,Singapore,1.305099,103.839199,
16 @ AMBER,Singapore,1.299536,103.898841,
18 SHELFORD,Singapore,1.327314,103.812824,
18 WOODSVILLE,Singapore,1.329641,103.868131,
1919,Singapore,1.287066,103.853561,
2 RVG,Singapore,1.29645,103.834302,
21 ANDERSON,Singapore,1.312645,103.828526,
21 RICHARDS,Singapore,1.361946,103.881619,
26 NEWTON,Singapore,1.31569,103.841598,
28 IMPERIAL RESIDENCES,Singapore,1.311796,103.884863,
28 RC SUITES,Singapore,1.309843,103.852972,
28 SHELFORD,Singapore,1.329061,103.811764,
283 STUDIO,Singapore,1.295765,103.839925,
336 RIVER VALLEY,Singapore,1.29608,103.838509,
368 THOMSON,Singapore,1.327207,103.84183,
38 AMBER,Singapore,1.300745,103.900883,
38 I SUITES,Singapore,1.311811,103.896249,
3@PHILLIPS,Singapore,1.363765,103.874399,
3@SANDILANDS,Singapore,1.361879,103.878148,
3BHC,Singapore,1.356141,103.832438,
448@EAST COAST,Singapore,1.308736,103.913452,
57 @ KOVAN,Singapore,1.357461,103.880151,
6 DERBYSHIRE,Singapore,1.315806,103.846,
7 ON CHAPEL,Singapore,1.306956,103.907136,
76 SHENTON,Singapore,1.273423,103.845534,
70@TRURO,Singapore,1.3146,103.8489,
8 @ MOUNT SOPHIA,Singapore,1.301469,103.846242,
8 BASSEIN,Singapore,1.324074,103.848284,
8 FARRER SUITES,Singapore,1.31481,103.854756,
8 NAPIER,Singapore,1.306532,103.820487,
8 RAJA,Singapore,1.327178,103.843031,
8 RODYK,Singapore,1.29022,103.837657,
833 M B RESIDENCES,Singapore,1.302419,103.898341,
8@WOODLEIGH,Singapore,1.335912,103.869664,
8M RESIDENCES,Singapore,1.299179,103.888673,
91 MARSHALL,Singapore,1.306552,103.901119,
A TREASURE TROVE,Singapore,1.404799,103.899374,
AA CENTRE,Singapore,1.321259,103.870773,
AALTO,Singapore,1.298127,103.897511,
ACORN,Singapore,1.293772,103.841654,
ACTION THEATRE,Singapore,1.298372,103.850933,
ADANA @ THOMSON,Singapore,1.3696,103.8279,
ADAM GREEN,Singapore,1.330003,103.815001,
ADAM PARK CONDOMINIUM,Singapore,1.328432,103.813012,
ADAM PLACE,Singapore,1.32522,103.812887,
ADELPHI PARK ESTATE,Singapore,1.355358,103.830139,
ADRIA,Singapore,1.316448,103.84629,
ADVANCE APARTMENTS,Singapore,1.313961,103.883281,
AFFLUENCE COURT,Singapore,1.350263,103.883108,
AIRSTREAM,Singapore,1.327367,103.864012,
AIRVIEW PARK,Singapore,1.352083,103.819836,
ALANA,Singapore,1.388676,103.855518,
ALBA,Singapore,1.278168,103.842642,
ALEGRIA,Singapore,1.324181,103.841054,
ALESSANDREA,Singapore,1.290588,103.822515,
ALEX RESIDENCES,Singapore,1.290687,103.818793,
ALEXIS,Singapore,1.291317,103.807401,
ALIAS VILLAS,Singapore,1.352083,103.819836,
ALLAMANDA GROVE,Singapore,1.322642,103.794008,
ALLAN VILLE,Singapore,1.352083,103.819836,
ALLSWORTH PARK,Singapore,1.31986,103.781139,
ALPHA APARTMENTS,Singapore,1.312116,103.905517,
ALTEZ,Singapore,1.274429,103.844315,
AMANINDA,Singapore,1.32482,103.841289,
AMARA SHOPPING CENTRE,Singapore,1.274987,103.843578,
AMARANDA GARDENS,Singapore,1.349403,103.866738,
AMARYLLIS VILLE,Singapore,1.314808,103.841959,
AMBER PARK,Singapore,1.301037,103.899167,
AMBER POINT,Singapore,1.298897,103.898466,
AMBER RESIDENCES,Singapore,1.302811,103.900951,
AMBER SKYE,Singapore,1.299492,103.898181,
AMBERGLADES,Singapore,1.301783,103.900245,
AMPAS APARTMENT,Singapore,1.32632,103.851131,
AMPAS COURT,Singapore,1.326441,103.851594,
AN CHUAN BUILDING,Singapore,1.296213,103.854755,
ANCHORPOINT SHOPPING CENTRE,Singapore,1.288727,103.80518,
ANDERSON HOUSE,Singapore,1.312753,103.828838,
ANGSANA PARK,Singapore,1.346895,103.776243,
ANGSANA@21,Singapore,1.331288,103.874473,
ANGULLIA PARK RESIDENCES@ORCHARD,Singapore,1.303617,103.829239,
AO JIANG APARTMENTS,Singapore,1.352083,103.819836,
APARTMENT 8,Singapore,1.310343,103.83167,
APLETON VIEW,Singapore,1.319192,103.845842,
APOLLO GARDENS,Singapore,1.338546,103.958868,
AQUARINE GARDENS,Singapore,1.313587,103.928134,
AQUARIUS BY THE PARK,Singapore,1.337841,103.935692,
AQUENE,Singapore,1.314209,103.909251,
ARC AT TAMPINES,Singapore,1.350311,103.92864,
ARCHIPELAGO,Singapore,1.338271,103.920135,
ARDISIA GARDENS,Singapore,1.347706,103.877495,
ARDMORE II,Singapore,1.309272,103.82826,
ARDMORE PARK,Singapore,1.309536,103.828443,
ARDMORE RESIDENCE,Singapore,1.31002,103.828136,
ARDMORE THREE,Singapore,1.308378,103.828571,
AROOZOO CENTRE,Singapore,1.354759,103.883081,
ARTHUR 118,Singapore,1.29892,103.887605,
ARTHUR MANSIONS,Singapore,1.298865,103.887304,
ARTRA,Singapore,1.290085,103.81668,
ASCENT @ 456,Singapore,1.326574,103.848433,
ASCENTIA SKY,Singapore,1.290809,103.817067,
ASHLEY GREEN,Singapore,1.320649,103.784993,
ASIA GARDENS,Singapore,1.276071,103.838244,
ASIMONT VILLAS,Singapore,1.320442,103.835188,
ASPEN HEIGHTS,Singapore,1.294362,103.840402,
ASPEN LINQ,Singapore,1.352083,103.819836,
ASPEN LOFT,Singapore,1.314636,103.904692,
ASTON LODGE,Singapore,1.309782,103.877201,
ASTON MANSIONS,Singapore,1.313868,103.890477,
ASTON RESIDENCE,Singapore,1.380217,103.96444,
ASTOR,Singapore,1.328804,103.91295,
ASTOR GREEN,Singapore,1.317372,103.776761,
ASTORIA PARK,Singapore,1.321808,103.912082,
ASTRID MEADOWS,Singapore,1.318503,103.794859,
ASTRIDVILLE,Singapore,1.352083,103.819836,
ATELIER VILLAS,Singapore,1.381513,103.833174,
ATHENA VILLE,Singapore,1.312419,103.89457,
ATRIUM RESIDENCES,Singapore,1.313311,103.885895,
ATTITUDE AT KIM YAM,Singapore,1.295515,103.838971,
AURA 83,Singapore,1.310459,103.906406,
AURALIS,Singapore,1.309781,103.916033,
AUSTVILLE RESIDENCES,Singapore,1.381059,103.901039,
AVA TOWERS,Singapore,1.32225,103.851772,
AVALON,Singapore,1.312798,103.828962,
AVANT AT ALJUNIED,Singapore,1.313576,103.882135,
AVANT RESIDENCES,Singapore,1.313576,103.882135,
AVENUE VILLAS,Singapore,1.327539,103.795112,
AVILA GARDENS,Singapore,1.360896,103.965951,
AVILA TERRACE,Singapore,1.359912,103.968981,
AVON PARK,Singapore,1.339256,103.869375,
AXIS @ SIGLAP,Singapore,1.311807,103.92391,
AZALEA PARK CONDOMINIUM,Singapore,1.360438,103.962755,
BAGNALL COURT,Singapore,1.32006,103.954944,
BALCON EAST,Singapore,1.314846,103.942283,
BALESTIER 288,Singapore,1.32298,103.852885,
BALESTIER PLAZA,Singapore,1.321495,103.852859,
BALESTIER POINT,Singapore,1.321495,103.852859,
BALLOTA PARK CONDOMINIUM,Singapore,1.358044,103.968535,
BALMORAL 8,Singapore,1.314694,103.832202,
BALMORAL CREST,Singapore,1.3163,103.834453,
BALMORAL GARDENS,Singapore,1.315292,103.832672,
BALMORAL GATE,Singapore,1.316998,103.834541,
BALMORAL HEIGHTS,Singapore,1.314915,103.834778,
BALMORAL HILLS,Singapore,1.316097,103.827934,
BALMORAL MANSIONS,Singapore,1.315292,103.832672,
BALMORAL PLACE,Singapore,1.316657,103.834922,
BALMORAL PLAZA,Singapore,1.316462,103.835754,
BALMORAL POINT,Singapore,1.315292,103.832672,
BALMORAL RESIDENCES,Singapore,1.315559,103.834951,
BALMORAL TOWER,Singapore,1.316627,103.833817,
BALMY COURT,Singapore,1.352083,103.819836,
BAN GUAN PARK,Singapore,1.319502,103.827377,
BANYAN CONDOMINIUM,Singapore,1.278025,103.788347,
BANYAN PARK,Singapore,1.27882,103.78914,
BANYAN VILLAS,Singapore,1.388289,103.838717,
BAODE BUILDING,Singapore,1.314984,103.888708,
BARKER 9,Singapore,1.319978,103.833808,
BARKER TERRACES,Singapore,1.32147,103.835658,
BARKER VILLE,Singapore,1.31955,103.836385,
BAROSSA GARDENS,Singapore,1.281281,103.784119,
BARTLEY RESIDENCES,Singapore,1.343123,103.881518,
BARTLEY RIDGE,Singapore,1.340909,103.881129,
BARTLEY RISE ESTATE,Singapore,1.343942,103.875726,
BARTLEY VILLAS,Singapore,1.344994,103.878129,
BASSEIN COURT,Singapore,1.322764,103.848305,
BAYOU RESIDENCE,Singapore,1.346363,103.880255,
BAYSHORE PARK,Singapore,1.313209,103.940388,
BAYSHORE TERRACE,Singapore,1.313209,103.940388,
BAYVILLE CONDOMINIUM,Singapore,1.281496,103.787445,
BAYWATER,Singapore,1.337562,103.9323,
BEACH ROAD CONSERVATION AREA,Singapore,1.299159,103.858933,
BEACON HEIGHTS,Singapore,1.326735,103.862089,
BEAUFORT ON NASSIM,Singapore,1.308563,103.824731,
BEAUTY WORLD CENTRE,Singapore,1.342479,103.776551,
BEAUTY WORLD PLAZA,Singapore,1.342479,103.776551,
BEAVERTON COURT,Singapore,1.316059,103.776124,
BEDOK COURT,Singapore,1.321944,103.945207,
BEDOK GROVE,Singapore,1.325431,103.953519,
BEDOK PARK,Singapore,1.341303,103.92455,
BEDOK PESARI,Singapore,1.324272,103.954505,
BEDOK RESIDENCES,Singapore,1.325105,103.929255,
BEDOK RIA,Singapore,1.326854,103.953195,
BEDOK SHOPPING COMPLEX,Singapore,1.331443,103.948226,
BEDOKVILLE,Singapore,1.352083,103.819836,
BEECHWOOD TERRACE,Singapore,1.426712,103.777934,
BELGRAVIA PARK,Singapore,1.382336,103.869345,
BELGRAVIA VILLAS,Singapore,1.379646,103.864843,
BELLA CASITA,Singapore,1.311694,103.894765,
BELLA VISTA,Singapore,1.344064,103.870308,
BELLAVILLE,Singapore,1.330101,103.871526,
BELLE VUE RESIDENCES,Singapore,1.296284,103.842335,
BELLERIVE,Singapore,1.317115,103.830578,
BELLEWOODS,Singapore,1.43288,103.800696,
BELLEZZA @ KATONG,Singapore,1.30691,103.902071,
BELMOND GREEN,Singapore,1.31519,103.832112,
BELMONDO VIEW,Singapore,1.293047,103.858696,
BELYSA,Singapore,1.374112,103.941726,
BENA PARK,Singapore,1.353468,103.968996,
BENCOOLEN HOUSE,Singapore,1.29881,103.849888,
BENDIGO GARDENS,Singapore,-36.726049,144.313822,x
BENG TONG MANSION,Singapore,1.308412,103.895121,
BERKELEY RESIDENCES,Singapore,1.304569,103.862728,
BETA GROVE,Singapore,1.31393,103.910748,
BEVERLY HILL,Singapore,1.298432,103.825579,
BIN TONG PARK,Singapore,1.319644,103.798231,
BINJAI CREST,Singapore,1.34393,103.788674,
BINJAI PARK,Singapore,1.339132,103.787774,
BIRCHWOOD MANSIONS,Singapore,1.352083,103.819836,
BIRMINGHAM MANSIONS,Singapore,1.317722,103.844904,
BISHAN 8,Singapore,1.349178,103.846762,
BISHAN LOFT,Singapore,1.34725,103.852445,
BISHAN PARK CONDOMINIUM,Singapore,1.366006,103.831983,
BISHAN POINT,Singapore,1.35975,103.832622,
BISHOPSGATE RESIDENCES,Singapore,1.298538,103.824511,
BLAIR PLAIN CONSERVATION AREA,Singapore,1.276904,103.836922,
BLEU @ EAST COAST,Singapore,1.315778,103.945214,
BLISS LOFT,Singapore,1.323408,103.852937,
BLISS REGALIA,Singapore,1.316196,103.85423,
BLISS RESIDENCES,Singapore,1.319716,103.912746,
BLISS VILLE,Singapore,1.324663,103.909683,
BLISS@KOVAN,Singapore,1.362904,103.883724,
BLISSFUL VIEW,Singapore,1.309582,103.802753,
BLOSSOM MANSIONS,Singapore,1.352083,103.819836,
BLOSSOM RESIDENCES,Singapore,1.389389,103.769691,
BLOSSOM VIEW,Singapore,1.352083,103.819836,
BLOSSOMS @ WOODLEIGH,Singapore,1.336254,103.868864,
BLU CORAL,Singapore,1.312797,103.914415,
BLUE HORIZON,Singapore,1.297423,103.765214,
BLUWATERS,Singapore,1.379799,103.963049,
BLUWATERS 2,Singapore,1.379909,103.963909,
BLUWEL APARTMENTS,Singapore,1.312978,103.887082,
BOATHOUSE RESIDENCES,Singapore,1.375706,103.902979,
BOON COURT,Singapore,1.315549,103.905502,
BOON TECK LODGE,Singapore,1.327674,103.850796,
BOON TECK TOWERS,Singapore,1.32785,103.850111,
BOONVIEW,Singapore,1.351673,103.841284,
BOTANIC GARDENS MANSION,Singapore,1.307905,103.819216,
BOTANIC GARDENS VIEW,Singapore,1.308593,103.819211,
BOTANIC LODGE,Singapore,1.311435,103.818148,
BOTANIKA,Singapore,1.309859,103.808127,
BOTANNIA,Singapore,1.318605,103.754288,
BOUGAINVILLA APARTMENTS,Singapore,1.313573,103.879557,
BOULEVARD VUE,Singapore,1.303331,103.828986,
BOURNEMOUTH EIGHT,Singapore,1.301964,103.893508,
BOUTIQUE @ KOVAN,Singapore,1.357645,103.88379,
BOWMONT CENTRE,Singapore,1.315651,103.919242,
BRADDELL HEIGHTS ESTATE,Singapore,1.343471,103.854784,
BRADDELL VIEW,Singapore,1.34209,103.841065,
BREEZE BY THE EAST,Singapore,1.314148,103.937461,
BREEZEWAYS,Singapore,1.352083,103.819836,
BREEZY MANSIONS,Singapore,1.352083,103.819836,
BRENTWOOD,Singapore,1.297206,103.83998,
BRIGHTON CREST,Singapore,1.360945,103.869065,
BRIGHTON VIEW,Singapore,1.360884,103.872641,
BRISTOL LODGE,Singapore,1.297597,103.844948,
BRIZAY PARK,Singapore,1.331086,103.787511,
BROOKVALE PARK,Singapore,1.330625,103.767271,
BUCKLEY 18,Singapore,1.318175,103.840777,
BUCKLEY CLASSIQUE,Singapore,1.318089,103.840234,
BUCKLEY RESIDENCE,Singapore,1.317244,103.840417,
BUKIT LOYANG ESTATE,Singapore,1.383286,103.974481,
BUKIT PASOH CONSERVATION AREA,Singapore,1.281574,103.847613,
BUKIT PASOH EXTNSN CONSTN AREA,Singapore,1.279204,103.840672,
BUKIT REGENCY,Singapore,1.346855,103.770902,
BUKIT VILLAS,Singapore,1.416438,103.754764,
BULLION PARK,Singapore,1.390797,103.837097,
BUONA LODGE,Singapore,1.282074,103.786791,
BUONA VISTA GARDENS,Singapore,1.282499,103.786937,
BURGUNDY HILL,Singapore,1.339154,103.760438,
BURLINGTON SQUARE,Singapore,1.302261,103.85263,
BUTTERWORTH 33,Singapore,1.312632,103.895665,
BUTTERWORTH 8,Singapore,1.312375,103.895073,
BUTTERWORTH VIEW,Singapore,1.312537,103.895177,
CABANA,Singapore,1.388324,103.854903,
CACTUS BLOOM,Singapore,1.391065,103.85144,
CACTUS GREEN,Singapore,1.273208,103.843634,
CADENCE LIGHT,Singapore,1.312321,103.910915,
CAIRNHILL ASTORIA,Singapore,1.30704,103.839357,
CAIRNHILL CONSERVATION AREA,Singapore,1.306716,103.837329,
CAIRNHILL CREST,Singapore,1.305288,103.838422,
CAIRNHILL HEIGHTS,Singapore,1.308572,103.837957,
CAIRNHILL MANSIONS,Singapore,1.305254,103.837486,
CAIRNHILL NINE,Singapore,1.303817,103.837257,
CAIRNHILL PLAZA,Singapore,1.306716,103.837329,
CAIRNHILL RESIDENCES,Singapore,1.307695,103.838921,
CALARASI,Singapore,1.323709,103.854326,
CALDECOTT HILL ESTATE,Singapore,1.337595,103.839606,
CALLIDORA VILLE,Singapore,1.309485,103.909773,
CAMBIO SUITES,Singapore,1.355041,103.876289,
CAMBRIDGE VILLAGE,Singapore,1.314969,103.84855,
CAMDEN PARK,Singapore,1.328656,103.81579,
CAMELIA PARK,Singapore,1.352083,103.819836,
CAMELLIA LODGE,Singapore,1.315383,103.886608,
CAMELOT,Singapore,1.297625,103.875418,
CAMWOOD PARK,Singapore,1.352083,103.819836,
CANARY PARK,Singapore,1.333,103.946783,
CANARY VILLE,Singapore,1.31478,103.914415,
CANBERLIN APARTMENTS,Singapore,1.310774,103.87985,
CANBERLIN LODGE,Singapore,1.309344,103.877019,
CANBERRA RESIDENCES,Singapore,1.444808,103.824887,
CANDEVILLE,Singapore,1.310734,103.910873,
CANNAVILLE,Singapore,1.309321,103.905287,
CANNE LODGE,Singapore,1.314248,103.873327,
CANNE VILLE,Singapore,1.311929,103.874475,
CANTIZ @ RAMBAI,Singapore,1.310702,103.905565,
CAPE ROYALE,Singapore,1.241711,103.840022,
CAPITOL PARK,Singapore,1.327823,103.818502,
CARABELLE,Singapore,1.317557,103.756492,
CARDIFF RESIDENCE,Singapore,1.355078,103.865876,
CARIBBEAN AT KEPPEL BAY,Singapore,1.267402,103.816767,
CARISSA PARK CONDOMINIUM,Singapore,1.359104,103.963642,
CARLYX GREEN,Singapore,1.313164,103.847825,
CARLYX RESIDENCE,Singapore,1.31336,103.84788,
CARMI MANSIONS,Singapore,1.315625,103.887782,
CARMINE COLLECTION,Singapore,1.352083,103.819836,
CASA AERATA,Singapore,1.312339,103.88505,
CASA AROMA,Singapore,1.313616,103.906103,
CASA CAIRNHILL,Singapore,1.308708,103.839544,
CASA CAMBIO,Singapore,1.353863,103.87632,
CASA CONTENDERE,Singapore,1.317735,103.838802,
CASA EMERALD,Singapore,1.311924,103.886988,
CASA ESPANIA,Singapore,1.344666,103.875396,
CASA ESPERANZA,Singapore,1.334593,103.783331,
CASA FELIZ,Singapore,1.352083,103.819836,
CASA FLORA,Singapore,1.321419,103.950406,
CASA FORTUNA,Singapore,1.32863,103.848092,
CASA IRRAWADDY,Singapore,1.324951,103.84603,
CASA JERVOIS,Singapore,1.294712,103.819,
CASA MELWANI,Singapore,1.316148,103.842139,
CASA MERAH,Singapore,1.329102,103.946189,
CASA MEYA,Singapore,1.331231,103.866797,
CASA MEYFORT,Singapore,1.296434,103.89105,
CASA NALLUR,Singapore,1.31231,103.932184,
CASA NASSAU,Singapore,1.313615,103.9389,
CASA NOVACREST,Singapore,1.309392,103.838047,
CASA PASIR RIS,Singapore,1.379738,103.963662,
CASA PERLA,Singapore,1.352083,103.819836,
CASA RIVIERA,Singapore,1.35473,103.875389,
CASA ROSA,Singapore,1.346088,103.879356,
CASA SARINA,Singapore,1.320486,103.907093,
CASA SERENO,Singapore,1.320486,103.907093,
CASA SOPHIA,Singapore,1.302673,103.846327,
CASA UNO,Singapore,1.300188,103.837331,
CASABELLA,Singapore,1.324039,103.799669,
CASABLANCA,Singapore,1.430554,103.786575,
CASAFINA,Singapore,1.315177,103.933579,
CASCADALE,Singapore,1.345994,103.96305,
CASCATA,Singapore,1.328468,103.908645,
CASERO @ DUNMAN,Singapore,1.309646,103.893794,
CASHEW ESTATE,Singapore,1.371268,103.765836,
CASHEW GARDEN,Singapore,1.370923,103.768793,
CASHEW HEIGHTS CONDOMINIUM,Singapore,1.373055,103.768236,
CASHEW HILL,Singapore,1.371852,103.767771,
CASHEW PARK CONDOMINIUM,Singapore,1.371371,103.767659,
CASHEW VILLAS,Singapore,1.371445,103.769457,
CASPIAN,Singapore,1.342861,103.717972,
CASSIA EDGE,Singapore,1.31164,103.885789,
CASSIA VIEW,Singapore,1.31097,103.886615,
CASTELLO,Singapore,1.352083,103.819836,
CASTLE GREEN,Singapore,1.386205,103.840931,
CASTLE LOFT,Singapore,1.313784,103.914705,
CASUARINA COVE,Singapore,1.297579,103.874698,
CATHAY GARDEN,Singapore,1.301555,103.83666,
CAVAN SUITES,Singapore,1.310927,103.861407,
CAVENAGH COURT,Singapore,1.309272,103.843405,
CAVENAGH FORTUNA,Singapore,1.308078,103.842103,
CAVENAGH GARDENS,Singapore,1.30559,103.840837,
CAVENAGH HOUSE,Singapore,1.307624,103.840606,
CAVENAGH LODGE,Singapore,1.306258,103.840786,
CAVENDISH PARK,Singapore,1.316832,103.775445,
CELADON VIEW,Singapore,1.378369,103.956555,
CELESTIA,Singapore,1.314995,103.904425,
CENTENNIA SUITES,Singapore,1.293186,103.833385,
CENTRA HEIGHTS,Singapore,1.316309,103.886578,
CENTRA LOFT,Singapore,1.314829,103.888424,
CENTRA RESIDENCE,Singapore,1.312816,103.876023,
CENTRA STUDIOS,Singapore,1.314307,103.882388,
CENTRA SUITES,Singapore,1.314705,103.883257,
CENTRAL GREEN CONDOMINIUM,Singapore,1.284591,103.827672,
CENTRAL GROVE,Singapore,1.315987,103.884424,
CENTRAL IMPERIAL,Singapore,1.311857,103.879248,
CENTRAL MEADOWS,Singapore,1.422217,103.835803,
CENTRAL VIEW,Singapore,1.353174,103.878379,
CENTREPOINT,Singapore,1.302155,103.839758,
CENTRO MANSIONS,Singapore,1.313263,103.886749,
CENTRO RESIDENCES,Singapore,1.370537,103.848709,
CENTURION 12,Singapore,1.355516,103.83329,
CENTURION RESIDENCES,Singapore,1.330447,103.870413,
CENTURY MANSIONS,Singapore,1.357485,103.762048,
CENTURY WOODS,Singapore,1.427614,103.776124,
CERELIA VISTA,Singapore,1.350456,103.882462,
CEYLON CREST,Singapore,1.306093,103.902611,
CEYLON POINT,Singapore,1.309049,103.900056,
CEYLON RESIDENCE,Singapore,1.309049,103.900056,
CHANCERY CORNER,Singapore,1.319894,103.837951,
CHANCERY COURT,Singapore,1.319894,103.837951,
CHANCERY ESQUIRE,Singapore,1.31788,103.836342,
CHANCERY GROVE,Singapore,1.322476,103.837129,
CHANCERY HILL VILLAS,Singapore,1.325014,103.838848,
CHANCERY LODGE,Singapore,1.323624,103.841601,
CHANCERY PARK,Singapore,1.31921,103.837081,
CHANGI COURT,Singapore,1.343455,103.962987,
CHANGI GARDEN,Singapore,1.361149,103.970399,
CHANGI GREEN,Singapore,1.344681,103.963857,
CHANGI GROVE,Singapore,1.318273,103.908584,
CHANGI HEIGHTS,Singapore,1.362839,103.972043,
CHANGI RISE CONDOMINIUM,Singapore,1.348812,103.960611,
CHANTILLY RISE,Singapore,1.3594,103.76292,
CHAPEL COURT,Singapore,1.305469,103.907285,
CHAPEL LODGE,Singapore,1.308741,103.906107,
CHARISMA VIEW,Singapore,1.344836,103.768529,
CHARLESTON,Singapore,1.295103,103.827804,
CHARLTON 27,Singapore,1.355094,103.881622,
CHARLTON CORNER,Singapore,1.355733,103.881391,
CHARLTON PARK,Singapore,1.35641,103.885469,
CHARLTON RESIDENCES,Singapore,1.355733,103.881391,
CHARLTON VILLAS,Singapore,1.355721,103.882059,
CHARMING GARDEN,Singapore,1.316663,103.803309,
CHATEAU LA SALLE,Singapore,1.30291,103.851595,
CHATEAU LE FAME,Singapore,1.316668,103.829365,
CHATELET,Singapore,1.319773,103.824234,
CHELSEA GARDENS,Singapore,1.313222,103.827512,
CHELSEA GROVE,Singapore,1.324023,103.851215,
CHELSEA LODGE,Singapore,1.305072,103.896082,
CHELSEA VILLAGE,Singapore,1.355379,103.867744,
CHEN FANG MANSIONS,Singapore,1.31537,103.88777,
CHENG SOON GARDEN,Singapore,1.334615,103.772333,
CHEPSTOW VILLE,Singapore,1.363351,103.872161,
CHERRY GARDENS,Singapore,1.290731,103.858274,
CHERRYHILL,Singapore,1.349766,103.878643,
CHESTER PARK,Singapore,1.371236,103.779544,
CHESTERVALE,Singapore,1.378516,103.774567,
CHESTNUT GARDENS,Singapore,1.369193,103.768562,
CHESTNUT VILLE,Singapore,1.367569,103.76945,
CHIANG'S COURT,Singapore,1.312946,103.928787,
CHIKU MANSIONS,Singapore,1.314137,103.9056,
CHILTERN PARK,Singapore,1.350052,103.863938,
CHINATOWN PLAZA,Singapore,1.278682,103.84187,
CHIP BEE GARDENS,Singapore,1.310805,103.796499,
CHIP HOCK GARDENS,Singapore,1.361617,103.851114,
CHIP THYE GARDEN,Singapore,1.381006,103.838364,
CHIVERTON,Singapore,1.317297,103.829206,
CHNG MANSIONS,Singapore,1.298625,103.887624,
CHOON KIM HOUSE,Singapore,1.354501,103.879053,
CHOON MOEY MANSIONS,Singapore,1.315829,103.886729,
CHOON SING GARDEN,Singapore,1.363484,103.865693,
CHUAN GARDEN,Singapore,1.362488,103.86839,
CHUAN PARK,Singapore,1.352975,103.864643,
CHUAN SEVEN,Singapore,1.360102,103.866974,
CHUAN TERRACE,Singapore,1.362002,103.867672,
CHUAN VILLAS,Singapore,1.349223,103.861195,
CHUAN VISTA,Singapore,1.36039,103.866873,
CHUAN YUAN,Singapore,1.28478,103.842482,
CHUN TIN COURT,Singapore,1.341927,103.773867,
CHUNG CHIN FLATS,Singapore,1.352083,103.819836,
CHWEE CHIAN VIEW,Singapore,1.279809,103.788216,
CITIGATE RESIDENCE,Singapore,1.352083,103.819836,
CITY EDGE,Singapore,1.31957,103.846593,
CITY LOFT,Singapore,1.314768,103.856664,
CITY PLAZA,Singapore,1.314816,103.893404,
CITY REGENCY,Singapore,1.326222,103.863635,
CITY SQUARE RESIDENCES,Singapore,1.31056,103.857467,
CITY STUDIOS,Singapore,1.310072,103.852651,
CITY SUITES,Singapore,1.321375,103.852246,
CITY TOWERS,Singapore,1.317697,103.832876,
CITYLIFE@TAMPINES,Singapore,1.359486,103.941143,
CITYLIGHTS,Singapore,1.309416,103.863189,
CITYSCAPE @FARRER PARK,Singapore,1.317972,103.851078,
CITYVALE,Singapore,1.317703,103.842985,
CITYVISTA RESIDENCES,Singapore,1.309446,103.83787,
CLAREMONT,Singapore,1.311372,103.854751,
CLASSICAL TERRACE,Singapore,1.344744,103.876492,
CLAYMORE PLAZA APARTMENT,Singapore,1.306822,103.831563,
CLEMENTI GREEN,Singapore,1.313878,103.772184,
CLEMENTI PARK,Singapore,1.326106,103.765638,
CLEMENTIWOODS CONDOMINIUM,Singapore,1.296892,103.767371,
CLIFTEN,Singapore,1.317638,103.829207,
CLIVEDEN AT GRANGE,Singapore,1.299285,103.826619,
CLOVER BY THE PARK,Singapore,1.359824,103.845631,
CLOVER PARK,Singapore,1.359824,103.845631,
CLUNY COURT,Singapore,1.322648,103.81428,
CLUNY PARK,Singapore,1.319762,103.814531,
CLUNY PARK RESIDENCE,Singapore,1.322012,103.813921,
CLYDES RESIDENCE,Singapore,1.3174,103.852256,
CLYDESCOVE,Singapore,1.379478,103.961602,
CLYDESVIEW,Singapore,1.294247,103.818455,
CLYDESWOOD,Singapore,1.344426,103.866725,
COASTAL BREEZE RESIDENCES,Singapore,1.37839,103.957333,
COASTAL VIEW RESIDENCES,Singapore,1.379282,103.960998,
COASTARINA,Singapore,1.309678,103.918599,
COCO PALMS,Singapore,1.370916,103.945867,
COLCHESTER PARK,Singapore,1.35792,103.867364,
COMFORT GARDEN,Singapore,1.376922,103.74573,
COMMONWEALTH TOWERS,Singapore,1.295813,103.805637,
COMPASS HEIGHTS,Singapore,1.392086,103.896151,
CONCOURSE SKYLINE,Singapore,1.300582,103.861926,
CORAL ISLAND,Singapore,1.251919,103.846071,
CORAL PARK,Singapore,1.39359,103.911755,
CORALIS,Singapore,1.304574,103.905792,
CORALS AT KEPPEL BAY,Singapore,1.265951,103.816962,
CORONA COURT,Singapore,1.322632,103.795614,
CORONA VILLE,Singapore,1.32256,103.794662,
CORONATION ARCADE,Singapore,1.323249,103.81058,
CORONATION GARDENS,Singapore,1.352083,103.819836,
CORONATION GROVE,Singapore,1.322972,103.802659,
CORONATION SHOPPING PLAZA,Singapore,1.323919,103.809989,
CORONATION VILLAGE,Singapore,1.321864,103.805326,
CORONATION VILLE,Singapore,1.322972,103.802659,
COSMO,Singapore,1.309614,103.881009,
COSTA DEL SOL,Singapore,1.311769,103.939511,
COSTA ESTE,Singapore,1.312537,103.909451,
COSTA RHU,Singapore,1.297313,103.866958,
COSY 23,Singapore,1.317838,103.862882,
COSY LODGE,Singapore,1.315383,103.886608,
COTE D'AZUR,Singapore,1.300918,103.904171,
COTSWOLD VILLAS,Singapore,1.346536,103.862226,
COUNTRY ESQUIRE,Singapore,1.359939,103.831028,
COUNTRY GRANDEUR,Singapore,1.360808,103.831243,
COUNTRY PARK CONDOMINIUM,Singapore,1.321392,103.954772,
CRADELS,Singapore,1.324739,103.853975,
CRAIG PLACE,Singapore,1.278053,103.842299,
CRANE COURT,Singapore,1.311969,103.898146,
CRESCENDO BUILDING,Singapore,1.31308,103.926542,
CRESCENDO PARK,Singapore,1.313377,103.925947,
CRESCENT BUILDING,Singapore,1.323751,103.852025,
CRESCENT FLATS,Singapore,1.376686,103.901699,
CRYSTAL COURT,Singapore,1.294191,103.827023,
CRYSTAL DE AZURE,Singapore,1.343396,103.881685,
CRYSTAL DEW,Singapore,1.316103,103.885257,
CRYSTAL HEIGHTS,Singapore,1.281564,103.785709,
CRYSTAL LODGE,Singapore,1.311248,103.87991,
CRYSTAL MANSIONS,Singapore,1.311356,103.876605,
CRYSTAL RHU,Singapore,1.298859,103.88387,
CRYSTAL TOWER,Singapore,1.316391,103.829998,
CUBE 8,Singapore,1.328105,103.841374,
CUBIK,Singapore,1.313502,103.911978,
CUSCADEN MANSIONS,Singapore,1.305254,103.837486,
CUSCADEN RESIDENCES,Singapore,1.304734,103.826493,
CUSCADEN ROYALE,Singapore,1.303655,103.829167,
CYAN,Singapore,1.318146,103.830463,
D - HERITAGE APARTMENTS,Singapore,1.295936,103.854899,
D' ALMIRA,Singapore,1.345005,103.867944,
D' CASITA,Singapore,1.321905,103.909359,
D' CASTILIA,Singapore,1.312788,103.903387,
D' DALVEY,Singapore,1.321284,103.821753,
D' FRESCO,Singapore,1.312552,103.90352,
D' HILLSIDE LOFT,Singapore,1.281353,103.785595,
D' IXORAS,Singapore,1.324255,103.849151,
D' KENARIS,Singapore,1.384881,103.871755,
D' MARINE,Singapore,1.304958,103.905792,
D' PALMA,Singapore,1.319707,103.911615,
D' SUNRISE,Singapore,1.312066,103.901002,
D'BANYAN,Singapore,1.444143,103.825427,
D'CAMBRIDGE,Singapore,1.314535,103.848505,
D'CHATEAU @ SHELFORD,Singapore,1.328137,103.812209,
D'ECOSIA,Singapore,1.306393,103.909987,
D'ELIAS,Singapore,1.372726,103.940701,
D'EVELYN,Singapore,1.316775,103.839662,
D'GALLERY,Singapore,1.319991,103.912268,
D'GROVE VILLAS,Singapore,1.30894,103.827589,
D'HIRO@HILLSIDE,Singapore,1.360121,103.875031,
D'LEEDON,Singapore,1.315373,103.804528,
D'LOTUS,Singapore,1.326178,103.853532,
D'MANOR,Singapore,1.329384,103.946335,
D'MIRA,Singapore,1.327517,103.849872,
D'NEST,Singapore,1.370318,103.946335,
D'OASIA,Singapore,1.319724,103.910567,
D'PAVILION,Singapore,1.369531,103.751938,
D'SAVILLE,Singapore,1.352083,103.819836,
D'SILVA TERRACE,Singapore,1.352083,103.819836,
D'WEAVE,Singapore,1.315662,103.890571,
D'ZIRE,Singapore,1.368289,103.882224,
D-MANSIONS,Singapore,1.352083,103.819836,
DA SILVA VILLAS,Singapore,1.364192,103.883025,
DAHLIA PARK CONDOMINIUM,Singapore,1.359053,103.965698,
DAISY LODGE,Singapore,1.344452,103.867416,
DAISY PARK,Singapore,1.352083,103.819836,
DAISY PETALS,Singapore,1.344814,103.866825,
DAISY SUITES,Singapore,1.343799,103.868392,
DAISY TERRACE,Singapore,1.344168,103.867391,
DAKOTA RESIDENCES,Singapore,1.306411,103.887017,
DALLA VALE,Singapore,1.400559,103.823596,
DALVEY COURT,Singapore,1.321051,103.821897,
DALVEY VILLAS,Singapore,1.314722,103.822509,
DAVISVILLE,Singapore,1.352083,103.819836,
DAWN VILLE,Singapore,1.312419,103.89457,
DE CASALLE,Singapore,1.352083,103.819836,
DE CENTURION,Singapore,1.298823,103.884239,
DE LENTE,Singapore,1.311696,103.801725,
DE PARADISO,Singapore,1.324127,103.850592,
DE ROYALE,Singapore,1.328263,103.849408,
DEDAP GARDENS,Singapore,1.388097,103.866954,
DELFI ORCHARD,Singapore,1.307238,103.828526,
DELIGHT COURT,Singapore,1.363544,103.746656,
DENG FU VILLE,Singapore,1.318935,103.906573,
DERBY COURT,Singapore,1.352083,103.819836,
DERBYSHIRE HEIGHTS,Singapore,1.316556,103.845759,
DESKER ROAD CONSERVATION AREA,Singapore,1.281574,103.847613,
DEVONSHIRE 12,Singapore,1.298002,103.837923,
DEVONSHIRE BUILDING,Singapore,1.298241,103.837826,
DEVONSHIRE RESIDENCES,Singapore,1.298962,103.837339,
DLV.,Singapore,1.315561,103.825198,
DOMAIN 21,Singapore,1.291899,103.82563,
DOMUS,Singapore,1.325683,103.845472,
DONG XING COURT,Singapore,1.312612,103.929412,
DORMER PARK,Singapore,1.294657,103.821127,
DORSETT RESIDENCES,Singapore,1.279642,103.840058,
DOUBLE BAY RESIDENCES,Singapore,1.341269,103.956287,
DOVER PARKVIEW,Singapore,1.305217,103.784399,
DRAGON VIEW PARK,Singapore,33.992955,-118.349117,x
DRAYCOTT EIGHT,Singapore,1.310343,103.83167,
DUBLIN LODGE,Singapore,1.298526,103.839198,
DUCHESS CREST,Singapore,1.324287,103.803367,
DUCHESS GARDEN,Singapore,1.32348,103.80292,
DUCHESS MANOR,Singapore,1.324536,103.807042,
DUCHESS PLACE,Singapore,1.324986,103.802075,
DUCHESS RESIDENCES,Singapore,1.323896,103.801614,
DUCHESS ROYALE,Singapore,1.32348,103.80292,
DUET,Singapore,1.311089,103.80434,
DUKE'S GARDEN,Singapore,1.322949,103.81214,
DUKES RESIDENCE,Singapore,1.321529,103.811373,
DUKU COURT,Singapore,1.309476,103.905041,
DUNEARN COURT,Singapore,1.324529,103.8118,
DUNEARN ESTATE,Singapore,1.325275,103.809297,
DUNEARN GARDENS,Singapore,1.314358,103.838911,
DUNEARN LODGE,Singapore,1.324725,103.810226,
DUNEARN REGENCY,Singapore,1.324542,103.810439,
DUNEARN SUITES,Singapore,1.324542,103.810439,
DUNMAN GARDEN,Singapore,1.309586,103.899281,
DUNMAN PLACE,Singapore,1.30978,103.895704,
DUNMAN REGENCY,Singapore,1.3095,103.893366,
DUNMAN VIEW,Singapore,1.309926,103.89709,
DUNSFOLD 18,Singapore,1.348349,103.86078,
DUNSFOLD RESIDENCES,Singapore,1.348349,103.86078,
DUNSFOLD VILLAS,Singapore,1.346297,103.860941,
DUO RESIDENCES,Singapore,1.300363,103.858367,
DYNASTY GARDEN,Singapore,1.323859,103.792673,
DYNASTY LODGE,Singapore,1.323986,103.792047,
E MAISON,Singapore,1.343313,103.869189,
E-SPACE,Singapore,1.329665,103.894451,
E7 LODGE,Singapore,1.321736,103.910547,
EALINE PARK,Singapore,1.352083,103.819836,
EAST 25 APARTMENTS,Singapore,1.333504,103.857011,
EAST BAY GARDENS,Singapore,1.317793,103.912524,
EAST COAST HILL,Singapore,1.309057,103.912691,
EAST COAST RESIDENCES,Singapore,1.314019,103.939754,
EAST COAST TERRACE,Singapore,1.310933,103.9227,
EAST COURT,Singapore,1.311844,103.904723,
EAST ELEGANCE,Singapore,1.315179,103.905435,
EAST GALLERIA,Singapore,1.312782,103.912071,
EAST GROVE,Singapore,1.318433,103.886805,
EAST MEADOWS,Singapore,1.328698,103.944034,
EAST MEWS,Singapore,1.30289,103.899653,
EAST PALM,Singapore,1.31383,103.931008,
EAST SHINE,Singapore,1.30391,103.901175,
EAST SIGNATURE,Singapore,1.312144,103.931585,
EAST TREASURE,Singapore,1.308982,103.902391,
EAST TUDOR,Singapore,1.352083,103.819836,
EAST VIEW,Singapore,1.303832,103.903509,
EAST VIEW 18,Singapore,1.303832,103.903509,
EAST VIEW GARDEN,Singapore,1.303832,103.903509,
EAST VILLAGE,Singapore,1.331795,103.946254,
EASTBAY,Singapore,1.312827,103.929302,
EASTCOVE RESIDENCES,Singapore,1.352083,103.819836,
EASTELLAR,Singapore,1.352083,103.819836,
EASTERN GROVE,Singapore,1.406892,103.902015,
EASTERN LAGOON,Singapore,1.313818,103.932933,
EASTPAC BUILDING,Singapore,1.326767,103.843274,
EASTPOINT GREEN,Singapore,1.338993,103.951017,
EASTREES,Singapore,1.352083,103.819836,
EASTSIDE LOFT,Singapore,1.305418,103.905525,
EASTVALE,Singapore,1.374936,103.953397,
EASTVILLE APARTMENTS,Singapore,1.31263,103.903025,
EASTWAY,Singapore,1.393188,103.893938,
EASTWIND MANSIONS,Singapore,1.3146,103.902381,
EASTWOOD CENTRE,Singapore,1.321492,103.955579,
EASTWOOD GARDEN,Singapore,1.321395,103.956048,
EASTWOOD GREEN,Singapore,1.322285,103.954845,
EASTWOOD LODGE,Singapore,1.31358,103.913527,
EASTWOOD REGENCY,Singapore,1.321498,103.957939,
EASTWOOD VILLE,Singapore,1.321395,103.956048,
EATON PARK,Singapore,1.387958,103.877917,
EBER GARDENS,Singapore,1.298779,103.840292,
EBONY MANSIONS,Singapore,1.31038,103.910367,
ECHELON,Singapore,1.290585,103.817885,
ECO,Singapore,1.3031,103.8531,
ECO SANCTUARY,Singapore,1.370927,103.776212,
ECOPOLITAN,Singapore,1.400957,103.897461,
ECOVILLE,Singapore,1.323835,103.850897,
EDELWEISS PARK CONDOMINIUM,Singapore,1.356463,103.968031,
EDEN CREST,Singapore,1.344865,103.871751,
EDEN PARK,Singapore,1.33149,103.791606,
EDEN RESIDENCES CAPITOL,Singapore,1.293096,103.851104,
EDEN VIEW,Singapore,1.344338,103.872553,
EDENZ LOFT,Singapore,1.312322,103.883488,
EDENZ SUITES,Singapore,1.312683,103.88558,
EDWARD LEE APARTMENTS,Singapore,1.296778,103.830219,
EIGHT @ EAST COAST,Singapore,1.309716,103.923162,
EIGHT COURTYARDS,Singapore,1.438604,103.831283,
EIGHT RIVERSUITES,Singapore,1.32165,103.864566,
EIS RESIDENCES,Singapore,1.307828,103.89942,
ELEVEN @ HOLLAND,Singapore,1.32857,103.789274,
ELIAS GREEN,Singapore,1.371204,103.941309,
ELIAS TERRACE,Singapore,1.372096,103.942161,
ELITE COURT,Singapore,1.316227,103.924995,
ELIZABETH HEIGHTS,Singapore,1.307547,103.836357,
ELIZABETH TOWER,Singapore,1.305895,103.836253,
ELLIOT AT THE EAST COAST,Singapore,1.312025,103.930627,
EMERALD APARTMENTS,Singapore,1.282304,103.84636,
EMERALD EAST,Singapore,1.299591,103.883993,
EMERALD GARDEN,Singapore,1.282304,103.84636,
EMERALD HILL CONSERVATION AREA,Singapore,1.303735,103.839269,
EMERALD PARK,Singapore,1.289619,103.830079,
EMERY POINT,Singapore,1.311708,103.895726,
EMILY RESIDENCE,Singapore,1.304093,103.84923,
EMPRADO SUITES,Singapore,1.310667,103.915612,
EN FU MANSIONS,Singapore,1.31537,103.88777,
ENG APARTMENTS,Singapore,1.314349,103.883024,
ENG HOON MANSIONS,Singapore,1.283454,103.834491,
ENG KONG GREEN,Singapore,1.335627,103.76963,
ENG KONG PARK,Singapore,1.333194,103.767895,
ENVIO,Singapore,1.314496,103.907463,
EON SHENTON,Singapore,1.273907,103.846216,
EQUATORIAL APARTMENTS,Singapore,1.298234,103.888017,
EQUITY HEIGHTS,Singapore,1.302508,103.84612,
ESCADA VIEW,Singapore,1.328933,103.913394,
ESPA,Singapore,1.258493,103.816118,
ESPADA,Singapore,1.297356,103.836706,
ESPANA,Singapore,1.30519,103.830536,
ESPARINA RESIDENCES,Singapore,1.38134,103.891311,
ESPIRA RESIDENCE,Singapore,1.313087,103.912242,
ESPIRA SPRING,Singapore,1.3173,103.9105,
ESPIRA SUITES,Singapore,1.317362,103.912615,
ESTA RUBY,Singapore,1.314015,103.893644,
ESTE VILLA,Singapore,1.382289,103.863727,
ESTELLA GARDENS,Singapore,1.359854,103.966672,
ESTERINA,Singapore,1.308206,103.89987,
ESTILO,Singapore,1.39392,103.887695,
ESTIQUE,Singapore,1.310112,103.893561,
ESTRIVILLAS,Singapore,1.321291,103.792753,
ETON COURT,Singapore,1.352083,103.819836,
EUHABITAT,Singapore,1.327913,103.906548,
EUNOS GREEN,Singapore,1.318619,103.905563,
EUNOS MANSION,Singapore,1.329867,103.905612,
EUNOS PARK,Singapore,1.318534,103.906464,
EUNOSVILLE,Singapore,1.318157,103.901563,
EUPHONY GARDENS,Singapore,1.424878,103.824647,
EURO-ASIA APARTMENTS,Singapore,1.322955,103.86393,
EURO-ASIA COURT,Singapore,1.29447,103.837637,
EURO-ASIA LODGE,Singapore,1.314579,103.901734,
EURO-ASIA PARK,Singapore,1.336442,103.867681,
EVANIA,Singapore,1.350284,103.879208,
EVELYN MANSIONS,Singapore,1.315597,103.839437,
EVER LODGE,Singapore,1.314632,103.889384,
EVERGREEN GARDEN,Singapore,1.315137,103.934555,
EVERGREEN PARK,Singapore,1.369035,103.899288,
EVERGREEN VIEW,Singapore,1.352083,103.819836,
EVERITT EDGE,Singapore,1.313721,103.901793,
EVERITT GREEN,Singapore,1.315151,103.901684,
EVERTON COURT,Singapore,1.275646,103.838691,
EWART PARK,Singapore,1.323929,103.783923,
EWE BOON REGENT,Singapore,1.316645,103.830395,
EXCELLENCE MANSIONS,Singapore,1.352083,103.819836,
FABER CREST,Singapore,1.323234,103.756993,
FABER GARDEN,Singapore,1.362666,103.829637,
FABER GARDEN CONDOMINIUM,Singapore,1.362666,103.829637,
FABER HILLS,Singapore,1.320422,103.756435,
FAIRHAVEN,Singapore,1.317703,103.842985,
FAIRLODGE,Singapore,1.311889,103.801491,
FAIRMOUNT CONDOMINIUM,Singapore,1.3211,103.956211,
FAME COURT,Singapore,1.352083,103.819836,
FAMILIE MANSIONS,Singapore,1.309027,103.877476,
FANTA GARDEN,Singapore,1.352083,103.819836,
FAR HORIZON GARDENS,Singapore,1.383241,103.838535,
FARRER PARK SUITES,Singapore,1.313144,103.853673,
FENARA COURT,Singapore,1.318605,103.911636,
FENG LAI MANSION,Singapore,1.352083,103.819836,
FENGLI GARDENS,Singapore,1.352083,103.819836,
FERN LODGE,Singapore,1.545726,103.656567,
FERNHILL COTTAGE,Singapore,1.314112,103.824673,
FERNHILL COURT,Singapore,1.313663,103.823622,
FERNHILL GARDEN,Singapore,1.314112,103.824673,
FERNHILL GROVE,Singapore,1.314036,103.824508,
FERNHILL PLACE,Singapore,1.314112,103.824673,
FERNHILL RESIDENCES,Singapore,1.314316,103.825999,
FERNWOOD TERRACE,Singapore,1.309659,103.924604,
FERNWOOD TERRACES,Singapore,1.309659,103.924604,
FERNWOOD TOWERS,Singapore,1.309468,103.924943,
FERRARIA PARK CONDOMINIUM,Singapore,1.357626,103.963865,
FERRELL RESIDENCES,Singapore,1.317812,103.832508,
FIDVI COURT,Singapore,1.352083,103.819836,
FIFTEEN ROBIN,Singapore,1.318742,103.826979,
FIFTH AVENUE CONDOMINIUM,Singapore,1.330196,103.795899,
FIFTY-TWO STEVENS,Singapore,1.314973,103.826376,
FIGARO GARDENS,Singapore,1.315227,103.926322,
FINLAND GARDENS,Singapore,1.311135,103.92363,
FIORENZA,Singapore,1.363678,103.886115,
FIRST POINT SUITES,Singapore,1.316473,103.910166,
FIVE CHANCERY,Singapore,1.318692,103.836893,
FLAME TREE PARK,Singapore,1.360985,103.828957,
FLAMINGO VALLEY,Singapore,1.317845,103.922706,
FLO RESIDENCE,Singapore,1.392126,103.913401,
FLORA EAST,Singapore,1.31422,103.905823,
FLORAVIEW,Singapore,1.391411,103.850301,
FLORAVILLE,Singapore,1.289440,103.849980,
FLORENCE GROVE,Singapore,1.361802,103.886077,
FLORENCE REGENCY,Singapore,1.366586,103.887062,
FLORIDA PARK,Singapore,1.388907,103.854877,
FLORIDIAN,Singapore,1.333405,103.786284,
FLORISSA PARK,Singapore,1.387081,103.835434,
FLYNN PARK,Singapore,1.278095,103.793398,
FONTAINE PARRY,Singapore,1.366768,103.880243,
FONTANA HEIGHTS,Singapore,1.315396,103.776848,
FOOK HAI BUILDING,Singapore,1.285089,103.846316,
FORD PLACE,Singapore,1.313785,103.79568,
FORESQUE RESIDENCES,Singapore,1.368654,103.77593,
FOREST HILLS CONDOMINIUM,Singapore,1.405182,103.817939,
FORESTVILLE,Singapore,1.432563,103.799318,
FORT GARDENS,Singapore,1.299226,103.884925,
FORTE SUITES,Singapore,1.349718,103.881869,
FORTUNA GARDENS,Singapore,1.352083,103.819836,
FORTUNA HILL,Singapore,1.359686,103.877027,
FORTUNA SEAVIEW VILLAS,Singapore,1.352083,103.819836,
FORTUNE JADE,Singapore,1.309955,103.894863,
FORTUNE PARK,Singapore,1.361607,103.890922,
FORTUNE SPRING,Singapore,1.352083,103.819836,
FORTUNE VIEW,Singapore,1.352083,103.819836,
FOUR SEASONS PARK,Singapore,1.30318,103.828489,
FRAGRANCE COURT,Singapore,1.277297,103.792737,
FRAGRANT GARDENS,Singapore,1.353509,103.878876,
FRANKEL ESTATE,Singapore,1.316508,103.917956,
FRASER RESIDENCE SINGAPORE,Singapore,1.305647,103.836893,
FREESIA WOODS,Singapore,1.324148,103.766724,
FRUITION,Singapore,1.314314,103.903569,
FU YUEN BUILDING,Singapore,1.297081,103.856431,
FUDU PARK,Singapore,1.389914,103.838236,
FULCRUM,Singapore,1.298689,103.884834,
FULTON HILL,Singapore,1.361451,103.833026,
FUTSING BUILDING,Singapore,1.310549,103.859276,
FUYONG ESTATE,Singapore,1.358494,103.76784,
FUYUEN COURT,Singapore,1.315934,103.888889,
GABRIEL VILLAS,Singapore,1.347354,103.877207,
GAIA,Singapore,1.310421,103.795046,
GALAXY TOWERS,Singapore,1.315074,103.897279,
GALLERY 8,Singapore,1.311668,103.905925,
GALLERY FIFTEEN,Singapore,1.327466,103.843734,
GALLOP COURT,Singapore,1.314227,103.811805,
GALLOP GABLES,Singapore,1.316359,103.806857,
GALLOP GARDENS,Singapore,1.314218,103.812981,
GALLOP GREEN,Singapore,1.31522,103.808429,
GALLOP PARK,Singapore,1.318747,103.811925,
GALLOP VILLAS,Singapore,1.314218,103.812981,
GAMBIER COURT,Singapore,1.292837,103.839814,
GAMBIR RIDGE,Singapore,1.344653,103.875666,
GAMBIR TERRACE,Singapore,1.344224,103.874485,
GARDEN APARTMENT,Singapore,1.314885,103.834344,
GARDEN APARTMENTS,Singapore,1.308593,103.819211,
GARDEN PARK RESIDENCES,Singapore,1.308229,103.823735,
GARDEN VIEW ESTATE,Singapore,1.360973,103.865707,
GARDENVILLE,Singapore,1.312478,103.827435,
GARDENVISTA,Singapore,1.3381,103.780066,
GARLICK PARK,Singapore,1.352083,103.819836,
GARLICK VILLE,Singapore,1.325701,103.792512,
GAY'S VILLAS,Singapore,1.352083,103.819836,
GEMINI APARTMENTS,Singapore,1.317188,103.925192,
GENTLE REFLECTIONS,Singapore,1.319302,103.83836,
GENTLE VILLAS,Singapore,1.320684,103.841575,
GERALD GARDENS,Singapore,1.385831,103.877869,
GEYLANG CONSERVATION AREA,Singapore,1.310225,103.900912,
GEYLANG HERITAGE,Singapore,1.313144,103.887505,
GEYLANG MANSION,Singapore,1.31527,103.886941,
GIDEON'S LODGE,Singapore,1.311178,103.901323,
GIFFARD MANSIONS,Singapore,1.32588,103.84936,
GILLENIA,Singapore,1.352083,103.819836,
GILSTEAD 38,Singapore,1.318161,103.839139,
GILSTEAD 68,Singapore,1.31902,103.841231,
GILSTEAD BROOKS,Singapore,1.318297,103.838614,
GILSTEAD COURT,Singapore,1.318333,103.839673,
GILSTEAD MANSION,Singapore,1.319223,103.840193,
GILSTEAD TWO,Singapore,1.314764,103.838416,
GISBORNE LIGHT,Singapore,1.31632,103.830399,
GLAMOUR VILLE,Singapore,1.352083,103.819836,
GLASGOW RESIDENCE,Singapore,1.361586,103.878585,
GLASGOW TERRACE,Singapore,1.361903,103.879148,
GLENDALE PARK,Singapore,1.363141,103.765344,
GLENFIELD APARTMENTS,Singapore,1.352083,103.819836,
GLENTREES,Singapore,1.316332,103.784811,
GLOBAL VILLE,Singapore,1.327614,103.842594,
GLORIA MANSION,Singapore,1.286548,103.780003,
GLOUCESTER MANSIONS,Singapore,1.313886,103.840362,
GOH & GOH BUILDING,Singapore,1.341024,103.776345,
GOLD COAST CONDOMINIUM,Singapore,1.290403,103.774851,
GOLD LEAF MANSIONS,Singapore,1.311427,103.916121,
GOLD PALM MANSIONS,Singapore,1.314168,103.915079,
GOLDEARTH VIEW,Singapore,1.352083,103.819836,
GOLDEN HEIGHTS,Singapore,1.349567,103.865944,
GOLDEN HILL ESTATE,Singapore,1.356274,103.864779,
GOLDEN MILE COMPLEX,Singapore,1.302606,103.864888,
GOLDEN RISE ESTATE,Singapore,1.354667,103.861645,
GOLDEN SHOWER PARK,Singapore,1.352083,103.819836,
GOLDENHILL PARK CONDOMINIUM,Singapore,1.352872,103.862313,
GOLDENHILL VILLAS,Singapore,1.352872,103.862313,
GOLDHILL GARDENS,Singapore,1.319249,103.831929,
GOLDHILL TOWERS,Singapore,1.32072,103.833335,
GOLDLEAF GARDENS,Singapore,1.311427,103.916121,
GOODLAND BUILDING,Singapore,1.310596,103.853683,
GOODLINK PARK,Singapore,1.426331,103.825333,
GOODLUCK GARDEN,Singapore,1.340988,103.769304,
GOODMAN CREST,Singapore,1.304438,103.89077,
GOODVIEW APARTMENTS,Singapore,1.311849,103.87686,
GOODWILL COURT,Singapore,1.312958,103.927906,
GOODWOOD GARDENS,Singapore,1.314885,103.834344,
GOODWOOD GRAND,Singapore,1.315408,103.833316,
GOODWOOD RESIDENCE,Singapore,1.308453,103.83455,
GOVERNMENT CO-OP HOUSING ESTATE,Singapore,1.352083,103.819836,
GPL TERRACE,Singapore,1.352083,103.819836,
GRACE GARDEN,Singapore,1.41868,103.709747,
GRACE PARK,Singapore,1.357743,103.868214,
GRACIOUS MANSIONS,Singapore,1.306842,103.912006,
GRAMERCY PARK,Singapore,1.298412,103.826569,
GRAND CHATEAU,Singapore,1.344033,103.768654,
GRAND DUCHESS AT ST PATRICK'S,Singapore,1.308654,103.915944,
GRAND REGALIA,Singapore,1.357064,103.881117,
GRAND REGENCY,Singapore,1.306441,103.833429,
GRAND RESIDENCE,Singapore,1.317054,103.910057,
GRANDE VISTA,Singapore,1.388844,103.852041,
GRANDEUR 8,Singapore,1.375561,103.847087,
GRANDIOSO 8,Singapore,1.355465,103.833019,
GRANDLINK SQUARE,Singapore,1.3142,103.891472,
GRANDVIEW SUITES,Singapore,1.312825,103.882456,
GRANGE 70,Singapore,1.299314,103.829248,
GRANGE 80,Singapore,1.299345,103.828234,
GRANGE HEIGHTS,Singapore,1.297487,103.835494,
GRANGE INFINITE,Singapore,1.301418,103.823726,
GRANGE RESIDENCES,Singapore,1.303974,103.822893,
GRANGE ROAD APARTMENTS,Singapore,1.299839,103.824766,
GRAY MANSIONS,Singapore,1.312659,103.89343,
GREAT WORLD CITY,Singapore,1.294274,103.831951,
GREEN COURT,Singapore,1.313674,103.88529,
GREEN GARDENS,Singapore,1.315888,103.877699,
GREEN HILL ESTATE,Singapore,1.278951,103.844735,
GREEN SPRINGS,Singapore,1.352083,103.819836,
GREENBANK PARK,Singapore,1.347893,103.788865,
GREENDALE COURT,Singapore,1.331764,103.807291,
GREENLANE APARTMENTS,Singapore,1.311081,103.893046,
GREENRIDGE,Singapore,1.385231,103.76644,
GREENWOOD MEWS,Singapore,1.336906,103.805145,
GREENWOOD VILLAS,Singapore,1.336906,103.805145,
GROSVENOR VIEW,Singapore,1.32747,103.911583,
GROVE RESIDENCE,Singapore,1.313137,103.825374,
GRYPHON TERRACE,Singapore,1.289814,103.776274,
GUAN SOON TERRACE,Singapore,1.337895,103.953612,
GUILIN COURT,Singapore,1.31215,103.8846,
GUILIN MANSIONS,Singapore,1.315836,103.88962,
GUILIN VIEW,Singapore,1.355878,103.752379,
GUILLEMARD APARTMENTS,Singapore,1.311193,103.884517,
GUILLEMARD EDGE,Singapore,1.311838,103.886167,
GUILLEMARD SUITES,Singapore,1.31061,103.882534,
GUILLEMARD VIEW,Singapore,1.311193,103.884517,
H RESIDENCES,Singapore,1.31573,103.908693,
H2O RESIDENCES,Singapore,1.392766,103.879232,
HAI SING PARK,Singapore,1.36571,103.89347,
HAIG 162,Singapore,1.306281,103.898789,
HAIG APARTMENTS,Singapore,1.30824,103.899618,
HAIG COURT,Singapore,1.306623,103.898351,
HAIG ELEVEN,Singapore,1.30824,103.899618,
HAIG GROVE,Singapore,1.307949,103.89936,
HAIG LODGE,Singapore,1.308115,103.898041,
HAIG RESIDENCES,Singapore,1.307828,103.89942,
HAIG TEN,Singapore,1.310882,103.896957,
HALLMARK RESIDENCES,Singapore,1.316063,103.830752,
HAMPSTEAD,Singapore,1.352083,103.819836,
HANA,Singapore,1.30596,103.828521,
HANSVILLE,Singapore,47.918622,-122.554246,x
HAPPY ESTATE,Singapore,1.369017,103.848122,
HAPPY MANSION,Singapore,1.352083,103.819836,
HARBOUR SUITES,Singapore,1.272199,103.827515,
HARBOUR VIEW TOWERS,Singapore,1.271975,103.80848,
HARBOURLIGHTS,Singapore,1.266285,103.822667,
HARMONY @ 1A,Singapore,1.363445,103.887901,
HARVEST MANSIONS,Singapore,1.28989,103.831826,
HARVEY VIEW,Singapore,1.352083,103.819836,
HAUS@SERANGOON GARDEN,Singapore,1.364896,103.860863,
HAWAII TOWER,Singapore,1.296861,103.889937,
HAZEL PARK CONDOMINIUM,Singapore,1.372783,103.764543,
HAZEL PARK TERRACE,Singapore,1.371722,103.764282,
HDB EXECUTIVE FLATS/STAFF HSE,Singapore,1.352083,103.819836,
HEDGES PARK CONDOMINIUM,Singapore,1.354955,103.966646,
HEETON PARK,Singapore,1.397902,103.818738,
HEJI GARDENS,Singapore,1.313048,103.911588,
HELICONA LODGE,Singapore,1.319902,103.953081,
HELIOS RESIDENCES,Singapore,1.306856,103.837965,
HENGDA BUIDLING,Singapore,1.279789,103.848683,
HENLEY GARDENS,Singapore,1.368044,103.884381,
HENRY PARK,Singapore,1.316783,103.784136,
HERITAGE 9,Singapore,1.311158,103.903828,
HERITAGE APARTMENTS,Singapore,1.288383,103.849229,
HERITAGE EAST,Singapore,1.309158,103.912562,
HERITAGE PLACE,Singapore,1.298709,103.856362,
HERITAGE RESIDENCES,Singapore,1.288383,103.849229,
HERITAGE VIEW,Singapore,1.30376,103.783899,
HERON BAY,Singapore,1.376312,103.903217,
HERTFORD COLLECTION,Singapore,1.313529,103.848931,
HERTFORD MANSION,Singapore,1.313529,103.848931,
HIGH OAK CONDOMINIUM,Singapore,1.340422,103.771083,
HIGH POINT,Singapore,1.308466,103.835521,
HIGH STREET CENTRE,Singapore,1.290009,103.849433,
HIGHGATE,Singapore,1.341607,103.76617,
HIGHLAND CENTRE,Singapore,1.355372,103.877235,
HIGHLAND CONDOMINIUM,Singapore,1.359204,103.880163,
HIGHLINE RESIDENCES,Singapore,1.284685,103.829812,
HIJAUAN,Singapore,1.352083,103.819836,
HILBRE28,Singapore,1.356364,103.878868,
HILLBROOKS,Singapore,1.358315,103.762688,
HILLCREST ARCADIA,Singapore,1.334933,103.809334,
HILLCREST PARK,Singapore,1.331862,103.807846,
HILLCREST VILLA,Singapore,1.32868,103.805641,
HILLINGTON GREEN,Singapore,1.359805,103.764648,
HILLION RESIDENCES,Singapore,1.378752,103.763484,
HILLS APARTMENT,Singapore,1.320422,103.756435,
HILLS TWOONE,Singapore,1.352762,103.758879,
HILLSGROVE,Singapore,1.35596,103.879159,
HILLSIDE MANSIONS,Singapore,1.358464,103.877311,
HILLSTA,Singapore,1.376123,103.756614,
HILLTOP GROVE,Singapore,1.357279,103.758305,
HILLTOPS,Singapore,1.307093,103.838555,
HILLVIEW 128,Singapore,1.357074,103.76095,
HILLVIEW APARTMENTS,Singapore,1.356201,103.762287,
HILLVIEW COURT,Singapore,1.360271,103.757372,
HILLVIEW ESTATE,Singapore,1.359601,103.763895,
HILLVIEW GARDEN ESTATE,Singapore,1.357626,103.758357,
HILLVIEW GREEN,Singapore,1.357869,103.764306,
HILLVIEW HEIGHTS,Singapore,1.361479,103.765426,
HILLVIEW PARK,Singapore,1.364657,103.765461,
HILLVIEW REGENCY,Singapore,1.351917,103.758756,
HILLVIEW RESIDENCE,Singapore,1.356307,103.760808,
HILLVIEW VILLAS,Singapore,1.359601,103.763895,
HILLVISTA,Singapore,1.360022,103.763413,
HMLET@PORTOFINO,Singapore,1.308783,103.902913,
HOA NAM BUILDING,Singapore,1.312858,103.859897,
HOCK MANSIONS,Singapore,1.302372,103.848589,
HOCK SENG PARK,Singapore,1.33627,103.787894,
HOCK SWEE HILL,Singapore,1.386667,103.863429,
HOLLAND 100,Singapore,1.31184,103.802045,
HOLLAND COURT,Singapore,1.313073,103.798206,
HOLLAND GARDENS,Singapore,1.312939,103.79839,
HOLLAND GEMS,Singapore,1.310019,103.807407,
HOLLAND GREEN,Singapore,1.326261,103.784302,
HOLLAND GROVE,Singapore,1.313209,103.779154,
HOLLAND GROVE PARK,Singapore,1.313747,103.780351,
HOLLAND HILL LODGE,Singapore,1.309819,103.802246,
HOLLAND HILL PARK,Singapore,1.309728,103.802337,
HOLLAND MANSION,Singapore,1.311894,103.801247,
HOLLAND MEWS,Singapore,1.30953,103.806267,
HOLLAND PEAK,Singapore,1.308891,103.801475,
HOLLAND RESIDENCES,Singapore,1.310902,103.799153,
HOLLAND SE7EN,Singapore,1.352083,103.819836,
HOLLAND SUITES,Singapore,1.311934,103.799398,
HOLLAND TOWER,Singapore,1.307722,103.802923,
HOLLAND VILLAGE,Singapore,1.311146,103.796141,
HOLLANDIA,Singapore,1.310384,103.802856,
HOLLANDSWOOD COURT,Singapore,1.309998,103.803631,
HOLLYWOOD APARTMENTS,Singapore,1.296586,103.84295,
HOLT RESIDENCES,Singapore,1.294187,103.826138,
HOMEY GARDENS,Singapore,1.310001,103.908834,
HONG BUILDING,Singapore,1.317674,103.852921,
HONG HENG GARDEN,Singapore,1.404009,103.817497,
HONG HENG MANSIONS,Singapore,1.402992,103.81832,
HONG HENG TERRACE,Singapore,1.404009,103.817497,
HONG KONG PARK,Singapore,22.277763,114.161812,
HONOLULU TOWER,Singapore,1.318498,103.831245,
HOOVER PARK,Singapore,1.343979,103.77326,
HORIZON GARDENS,Singapore,1.377331,103.834991,
HORIZON GREEN,Singapore,1.37604,103.833674,
HORIZON RESIDENCES,Singapore,1.281957,103.784425,
HORIZON TOWERS,Singapore,1.298325,103.833355,
HOUGANG GREEN,Singapore,1.37932,103.887893,
HUA GUAN GARDENS,Singapore,1.339252,103.785062,
HUA MEI GARDENS,Singapore,1.302429,103.883961,
HUA XIN COURT,Singapore,1.311207,103.9334,
HUA YU MANSION,Singapore,1.314668,103.941477,
HUIT,Singapore,1.29913,103.846399,
HULLET RISE,Singapore,1.303237,103.838698,
HUME PARK I,Singapore,1.353976,103.768197,
HUME PARK II,Singapore,1.355146,103.767569,
HUNDRED TREES,Singapore,1.314973,103.758625,
ICON,Singapore,1.275342,103.844474,
ICON @ PASIR PANJANG,Singapore,1.279262,103.785914,
IDYLLIC EAST,Singapore,1.316261,103.946071,
IDYLLIC RESIDENCES,Singapore,1.310942,103.912365,
IDYLLIC SUITES,Singapore,1.312864,103.886328,
ILIV @ GRANGE,Singapore,1.299732,103.828911,
ILLOURA,Singapore,1.330791,103.790181,
ILLUMINAIRE ON DEVONSHIRE,Singapore,1.298973,103.836792,
IMPERIAL HEIGHTS,Singapore,1.31162,103.895039,
INOVA 100,Singapore,1.352083,103.819836,
INTERNATIONAL PLAZA,Singapore,1.2757,103.84581,
INTERO,Singapore,1.360145,103.857475,
IPLAZA,Singapore,1.352083,103.819836,
IRESIDENCES,Singapore,1.325257,103.845639,
IRIDIUM,Singapore,1.315142,103.842649,
ISLAND COUNTRY VILLAS,Singapore,1.352083,103.819836,
ISLAND GARDENS,Singapore,1.361789,103.828807,
ISLAND PARK,Singapore,1.409295,103.92165,
ISLAND VIEW,Singapore,1.279726,103.792845,
ISUITES @ MARSHALL,Singapore,1.307067,103.900669,
ISUITES @ PALM,Singapore,1.361383,103.87841,
ISUITES @ TANI,Singapore,1.365922,103.88471,
IVORY,Singapore,1.311287,103.900478,
IVORY APARTMENTS,Singapore,1.311287,103.900478,
IVORY HEIGHTS,Singapore,1.335558,103.737052,
J C DRAYCOTT,Singapore,1.309793,103.830889,
J GATEWAY,Singapore,1.335555,103.74187,
JADE MANSION,Singapore,1.313566,103.797005,
JADE RESIDENCES,Singapore,1.349167,103.877999,
JADE VINE GARDENS,Singapore,1.364546,103.882089,
JALAN KAYU ESTATE,Singapore,1.396844,103.873102,
JANSEN 28,Singapore,1.360127,103.876729,
JANSEN 8,Singapore,1.358769,103.878131,
JANSEN MANSIONS,Singapore,1.360127,103.876729,
JARDIN,Singapore,1.31384,103.815914,
JAYA TOWERS,Singapore,1.320325,103.823711,
JC COURT,Singapore,1.286969,103.843784,
JC RESIDENCE,Singapore,1.352083,103.819836,
JC VILLE,Singapore,1.314191,103.905099,
JERSEY LODGE,Singapore,1.314849,103.914767,
JERVOIS COURT,Singapore,1.294932,103.821207,
JERVOIS GARDENS,Singapore,1.293279,103.823565,
JERVOIS GREEN,Singapore,1.295207,103.818339,
JERVOIS GROVE,Singapore,1.29524,103.818503,
JERVOIS JADE APARTMENTS,Singapore,1.29248,103.825251,
JERVOIS LODGE,Singapore,1.293954,103.823738,
JERVOIS MANSIONS,Singapore,1.292639,103.823938,
JERVOIS MEADOWS,Singapore,1.294966,103.816761,
JERVOIS REGENCY,Singapore,1.294473,103.821964,
JERVOIS VIEW,Singapore,1.293982,103.824285,
JERVOISVILLE,Singapore,1.293982,103.824285,
JEWEL @ BUANGKOK,Singapore,1.38105,103.892452,
JEWEL @ CHUAN HOE,Singapore,1.365034,103.877935,
JEWEL OF BALMORAL,Singapore,1.315806,103.827556,
JI CHANG VILLA,Singapore,1.352083,103.819836,
JI XIANG COURT,Singapore,1.264218,103.820358,
JIA,Singapore,1.302587,103.847585,
JIN DING GARDEN,Singapore,1.330565,103.94673,
JING SUITES,Singapore,1.318057,103.906419,
JJ'S RESIDENCES @ JERVOIS,Singapore,1.293439,103.823817,
JJH RESIDENCES,Singapore,1.346442,103.871332,
JK BUILDING,Singapore,1.34052,103.774105,
JLB RESIDENCES,Singapore,1.379075,103.960588,
JOO CHIAT APARTMENT,Singapore,1.312082,103.90035,
JOO CHIAT MANSIONS,Singapore,1.314087,103.904407,
JOO CHIAT VERBENA,Singapore,1.309909,103.902027,
JOOL SUITES,Singapore,1.352083,103.819836,
JUBILEE RESIDENCE,Singapore,1.289461,103.775388,
JULUCA,Singapore,1.291102,103.772474,
JUNIPER AT ARDMORE,Singapore,1.310042,103.82924,
JUPITER 18,Singapore,1.315645,103.900586,
JURONG PARK,Singapore,1.318707,103.706442,
K-LODGE,Singapore,1.312343,103.909355,
KAI FOOK MANSION,Singapore,1.285252,103.829245,
KALLANG RIVERSIDE,Singapore,1.3070,103.8683,
KAMPONG GLAM CONSERVATION AREA,Singapore,1.301558,103.862313,
KAP RESIDENCES,Singapore,1.336879,103.779452,
KARTAR APARTMENTS,Singapore,1.314961,103.844975,
KASTURINA LODGE,Singapore,1.296416,103.829702,
KATONG APARTMENTS,Singapore,1.30691,103.902071,
KATONG GARDENS,Singapore,1.308595,103.905199,
KATONG OMEGA APARTMENTS,Singapore,1.308846,103.911176,
KATONG PARK TOWERS,Singapore,1.299751,103.888124,
KATONG PLAZA,Singapore,1.304325,103.903746,
KATONG REGENCY,Singapore,1.31474,103.894641,
KATONG VILLE,Singapore,1.304408,103.906745,
KECHUBONG TERRACE,Singapore,1.386933,103.87527,
KELIVILLE,Singapore,1.355316,103.834592,
KELLETT COURT,Singapore,1.327399,103.812383,
KELLOCK LODGE,Singapore,1.294819,103.829482,
KELLY VILLAS,Singapore,1.352083,103.819836,
KELSO GARDENS,Singapore,1.352083,103.819836,
KELULUT HILL,Singapore,1.383855,103.873357,
KEMAMAN POINT,Singapore,1.326541,103.850837,
KEMBANGAN COURT,Singapore,1.319621,103.912243,
KEMBANGAN PLAZA,Singapore,1.320443,103.91272,
KEMBANGAN SUITES,Singapore,1.320034,103.912441,
KENG LEE COURT,Singapore,1.312875,103.847405,
KENG LEE VIEW,Singapore,1.313965,103.846469,
KENG SOON BLDG,Singapore,1.301605,103.85135,
KENG YEE GARDEN,Singapore,1.318335,103.910361,
KENSINGTON PARK CONDOMINIUM,Singapore,1.367701,103.869379,
KENSINGTON SQUARE,Singapore,1.345707,103.882671,
KENT RESIDENCES,Singapore,1.316085,103.852156,
KENTISH COURT,Singapore,1.315285,103.852147,
KENTISH GREEN,Singapore,1.315923,103.852337,
KENTISH LODGE,Singapore,1.316017,103.852919,
KENTVIEW PARK,Singapore,1.282138,103.785619,
KERRISDALE,Singapore,1.313277,103.857975,
KEW COTTAGES,Singapore,-37.805278,145.035833,x
KEW GATE,Singapore,1.321599,103.949359,
KEW GREEN,Singapore,1.318441,103.949626,
KEW GROVE,Singapore,1.320424,103.950635,
KEW LODGE,Singapore,1.297597,103.844948,
KEW PLACE,Singapore,1.325935,103.891848,
KEW RESIDENCIA,Singapore,1.318715,103.948456,
KHEAM HOCK GARDENS,Singapore,1.328546,103.820045,
KIARA 10,Singapore,1.323193,103.908908,
KILAT CENTRE,Singapore,1.341349,103.772438,
KILAT COURT,Singapore,1.341044,103.773005,
KILBURN ESTATE,Singapore,1.352083,103.819836,
KILLINEY 118,Singapore,1.298041,103.838547,
KIM COURT,Singapore,1.312825,103.876317,
KIM KEAT GARDENS,Singapore,1.325213,103.853673,
KIM KEAT HOUSE,Singapore,1.325352,103.853864,
KIM KEAT LODGE,Singapore,1.324109,103.852595,
KIM LIN PARK,Singapore,1.301086,103.82686,
KIM SIA COURT,Singapore,1.305887,103.833846,
KIMETAL BUILDING,Singapore,1.352083,103.819836,
KIMNAN PARK,Singapore,1.325597,103.914259,
KIMSIA PARK,Singapore,1.305887,103.833846,
KINDOL GARDENS,Singapore,1.287382,103.815116,
KING ALBERT PARK,Singapore,1.334376,103.779527,
KING'S 8,Singapore,1.32287,103.810819,
KING'S ARCADE,Singapore,1.323105,103.810718,
KING'S COURT,Singapore,1.314771,103.84635,
KING'S GARDEN,Singapore,1.3176,103.802847,
KING'S LODGE,Singapore,1.336616,103.780255,
KING'S MANSION,Singapore,1.300772,103.898367,
KINGS APARTMENTS,Singapore,1.312166,103.907768,
KINGSFORD . HILLVIEW PEAK,Singapore,1.364638,103.764334,
KINGSGROVE,Singapore,1.355668,103.858855,
KINGSLEY MANSIONS,Singapore,1.326983,103.850137,
KINGSTON TERRACE,Singapore,1.319601,103.912904,
KINGSVILLE,Singapore,1.318991,103.806457,
KINTA SUITES,Singapore,1.299521,103.860048,
KISMIS COURT,Singapore,1.33733,103.768142,
KISMIS VIEW,Singapore,1.33733,103.768142,
KJ MANSION,Singapore,1.352083,103.819836,
KLASSIC COURT,Singapore,1.352083,103.819836,
KNOX VIEW,Singapore,1.352083,103.819836,
KOON SENG COURT,Singapore,1.311559,103.904287,
KOVAN 81,Singapore,1.35425,103.878922,
KOVAN APARTMENTS,Singapore,1.357415,103.879557,
KOVAN CREST,Singapore,1.35859,103.881419,
KOVAN ESQUIRE,Singapore,1.31788,103.836342,
KOVAN GARDEN,Singapore,1.35859,103.881419,
KOVAN GRANDEUR,Singapore,1.360857,103.891998,
KOVAN MELODY,Singapore,1.359904,103.883154,
KOVAN PRIMERA,Singapore,1.355113,103.878053,
KOVAN REGENCY,Singapore,1.362639,103.885801,
KOVAN RESIDENCES,Singapore,1.361154,103.885038,
KOVANA,Singapore,1.357583,103.880771,
KUIE PONG LOFT,Singapore,1.319219,103.826105,
KUM HING COURT,Singapore,1.30288,103.826022,
KURAU COURT,Singapore,1.312095,103.911204,
L'VIV,Singapore,1.315296,103.840844,
LA BELLE,Singapore,1.277688,103.843601,
LA BRISA,Singapore,1.311827,103.885447,
LA CASA,Singapore,1.432361,103.797841,
LA CRYSTAL,Singapore,1.3031,103.834302,
LA DOLCE VITA,Singapore,1.34607,103.880604,
LA FIESTA,Singapore,1.389569,103.895369,
LA FLEUR,Singapore,1.312416,103.884628,
LA MAISON,Singapore,1.291445,103.840853,
LA MEYER,Singapore,1.297524,103.889639,
LA NOUVELLE,Singapore,1.310248,103.827866,
LA QUINTA PARK,Singapore,33.663357,-116.310009,x
LA SUISSE,Singapore,1.348103,103.791245,
LA VIDA @ 130,Singapore,1.313727,103.914975,
LA VILLE,Singapore,1.299305,103.88439,
LADYHILL PARK,Singapore,1.310942,103.823191,
LAGOON VIEW,Singapore,1.310092,103.932699,
LAGUNA 88,Singapore,1.322124,103.958512,
LAGUNA GREEN,Singapore,1.31292,103.934885,
LAGUNA PARK,Singapore,1.309061,103.9293,
LAKE LIFE,Singapore,1.332574,103.723904,
LAKEHOLMZ,Singapore,1.341956,103.716318,
LAKEPOINT CONDOMINIUM,Singapore,1.340491,103.716696,
LAKESIDE APARTMENTS,Singapore,1.33593,103.725568,
LAKESIDE GROVE,Singapore,1.339097,103.717418,
LAKESIDE TOWER,Singapore,1.337306,103.725502,
LAKEVIEW ESTATE,Singapore,1.34797,103.835387,
LAKEVILLE,Singapore,1.345719,103.725392,
LANDBAY CONDOMINIUM,Singapore,1.313419,103.936023,
LANDED HOUSING DEVELOPMENT,Singapore,1.42867,103.778931,
LANDMARK TOWER,Singapore,1.28624,103.839575,
LANDRIDGE CONDOMINIUM,Singapore,1.278531,103.786375,
LANGSTON VILLE,Singapore,1.294946,103.838935,
LATITUDE,Singapore,1.295707,103.828447,
LAUW & SONS GARDEN,Singapore,1.278629,103.850109,
LAVERNE'S LOFT,Singapore,1.311278,103.910276,
LE ARC,Singapore,1.352083,103.819836,
LE CONNEY PARK,Singapore,1.31213,103.911864,
LE CRESCENDO,Singapore,1.330819,103.888669,
LE GAMBIR,Singapore,1.352083,103.819836,
LE HILL CONDOMINIUM,Singapore,1.282659,103.78547,
LE LOYANG,Singapore,1.378385,103.956285,
LE M RESIDENCE,Singapore,1.352083,103.819836,
LE MARICAN,Singapore,1.322127,103.90839,
LE MERITT,Singapore,1.311119,103.913457,
LE REGAL,Singapore,1.312545,103.880207,
LE REVE,Singapore,1.318928,103.906157,
LE SHANTIER,Singapore,1.326362,103.846602,
LE SOMME,Singapore,1.3113,103.858359,
LE WILKIE,Singapore,1.302801,103.847925,
LE WOOD,Singapore,1.34711,103.775796,
LEEDON 2,Singapore,1.312959,103.796837,
LEEDON RESIDENCE,Singapore,1.313516,103.802657,
LEGEND @ JANSEN,Singapore,1.36132,103.87549,
LEGENDA AT JOO CHIAT,Singapore,1.313045,103.901712,
LEICESTER LODGE,Singapore,1.330029,103.867007,
LEICESTER SUITES,Singapore,1.330327,103.867042,
LEIGHWOODS,Singapore,1.314999,103.777309,
LEITH GROVE,Singapore,1.362179,103.874083,
LEITH PARK,Singapore,1.362113,103.874134,
LENTOR VIEW,Singapore,1.395493,103.832021,
LENTOR VILLAS,Singapore,1.389109,103.835076,
LEONG HIN BUILDING,Singapore,1.326023,103.848463,
LEONIE CONDOTEL,Singapore,1.297035,103.833974,
LEONIE GARDENS,Singapore,1.298177,103.832142,
LEONIE HILL RESIDENCES,Singapore,1.298712,103.831693,
LEONIE PARC VIEW,Singapore,1.298893,103.834251,
LEONIE SUITES,Singapore,1.298712,103.831693,
LEONIE TOWERS,Singapore,1.298192,103.83143,
LERMIT LODGE,Singapore,1.311435,103.818148,
LESHAN GARDENS,Singapore,1.281568,103.863613,
LEVENUE,Singapore,1.328388,103.913735,
LEVILLE ISUITES,Singapore,1.305919,103.902587,
LEW'S MANSION,Singapore,1.352083,103.819836,
LEWIS LODGE,Singapore,1.320297,103.822774,
LIAN VILLAS,Singapore,1.309213,103.922006,
LIANG SEAH COURT,Singapore,1.297927,103.856675,
LIANG SEAH PLACE,Singapore,1.298434,103.856063,
LIBERTE,Singapore,1.314032,103.836508,
LIEN TOWERS,Singapore,1.309963,103.804576,
LIGHTHOUSE,Singapore,1.286284,103.853118,
LILAC PARK,Singapore,1.382245,103.861763,
LILYDALE,Singapore,1.424168,103.849146,
LIMAU GROVE,Singapore,1.322753,103.951494,
LIMAU PARK,Singapore,1.32261,103.947836,
LIMAU VILLAS,Singapore,1.323928,103.950168,
LINCOLN SUITES,Singapore,1.317078,103.842927,
LION TOWERS,Singapore,1.316578,103.845309,
LIRIA TERRACE,Singapore,1.360448,103.968256,
LITTLE INDIA CONSERVATION AREA,Singapore,1.30654,103.853566,
LIV ON SOPHIA,Singapore,1.300938,103.846829,
LIV ON WILKIE,Singapore,1.302806,103.847606,
LIVIA,Singapore,1.372848,103.943763,
LIVINGSTON MANSIONS,Singapore,1.312775,103.91498,
LLOYD COURT,Singapore,1.297426,103.839597,
LLOYD MANSION,Singapore,1.296822,103.840377,
LLOYD SIXTYFIVE,Singapore,1.297274,103.838836,
LLYN GARDENS,Singapore,1.352083,103.819836,
LODGE 77,Singapore,1.313301,103.927496,
LOFT 33,Singapore,1.312686,103.88695,
LOFT @ NATHAN,Singapore,1.294265,103.827409,
LOFT @ RANGOON,Singapore,1.314989,103.853716,
LOFT @ STEVENS,Singapore,1.317463,103.82635,
LOFT@HOLLAND,Singapore,1.312372,103.796875,
LONG HUA YUAN,Singapore,1.327291,103.875289,
LONG NIAN COURT,Singapore,1.352083,103.819836,
LONGBEACH TOWNHOUSE,Singapore,1.352083,103.819836,
LORNIE 18,Singapore,1.338174,103.820167,
LOTUS AT BARKER,Singapore,1.321158,103.835882,
LOTUS AT JERVOIS,Singapore,1.313714,103.902545,
LOTUS AT JOO CHIAT,Singapore,1.313928,103.902021,
LOTUS AT PASIR PANJANG,Singapore,1.279519,103.784844,
LOTUS AT PAYA LEBAR,Singapore,1.315612,103.891312,
LOTUS BY PAYA LEBAR (WEST WING),Singapore,1.315612,103.891312,
LOTUS VILLE,Singapore,1.350222,103.841112,
LOUIS GARDEN,Singapore,1.352083,103.819836,
LOWLAND VIEW,Singapore,1.361145,103.883274,
LOYANG GARDENS,Singapore,1.378142,103.956765,
LOYANG GREEN,Singapore,1.37578,103.97407,
LOYANG TOWNHOUSES,Singapore,1.379992,103.964138,
LOYANG VALLEY,Singapore,1.369551,103.97064,
LOYANG VILLAS,Singapore,1.363511,103.965992,
LUCIDA,Singapore,1.314409,103.845037,
LUCKY COURT,Singapore,1.317515,103.940853,
LUCKY HILL,Singapore,1.274548,103.825951,
LUCKY PARK,Singapore,1.289058,103.846668,
LUCKY PLAZA APARTMENTS,Singapore,1.304224,103.834267,
LUCKY VILLAS,Singapore,1.315396,103.940318,
LUMA,Singapore,1.296855,103.834536,
LUMIERE,Singapore,1.274135,103.846141,
LUSH ACRES,Singapore,1.394834,103.879815,
LUSH ON HOLLAND HILL,Singapore,1.308899,103.800486,
LUXE VILLE,Singapore,1.289558,103.776773,
LUXURY APARTMENTS,Singapore,1.311419,103.835921,
LUXUS HILLS,Singapore,1.380569,103.870555,
LYNDHURST GROVE,Singapore,1.303735,103.888041,
LYNNSVILLE 331,Singapore,1.288717,103.777036,
LYNWOOD EIGHT,Singapore,1.346201,103.863003,
M21,Singapore,1.322584,103.849051,
M66,Singapore,1.328575,103.864772,
MABELLE,Singapore,1.310428,103.909579,
MACHUAN TERRACE,Singapore,1.362002,103.867672,
MACKENZIE 138,Singapore,1.306735,103.846856,
MACKENZIE 88,Singapore,1.306347,103.847522,
MACKENZIE REGENCY,Singapore,1.304578,103.849689,
MACPHERSON GARDEN ESTATE,Singapore,1.326314,103.886046,
MADEIRA COURT,Singapore,1.310363,103.90974,
MADISON RESIDENCES,Singapore,1.318828,103.830095,
MAKEWAY VIEW,Singapore,1.312754,103.841944,
MALAYSIA PARK,Singapore,1.461588,103.838187,
MALVERN SPRINGS,Singapore,1.306007,103.903846,
MANDAI GARDEN,Singapore,1.403504,103.81314,
MANDALAY MANSION,Singapore,1.323823,103.849372,
MANDALAY TOWERS,Singapore,1.323697,103.849162,
MANDALE HEIGHTS,Singapore,1.324103,103.8498,
MANDARIN GARDENS,Singapore,1.307539,103.923551,
MANDARIN PARK,Singapore,1.338987,103.729753,
MANHATTAN MANSIONS,Singapore,1.299871,103.828396,
MANILA GARDENS,Singapore,1.31384,103.815914,
MANSIONS 28,Singapore,1.31527,103.886941,
MAPLE WOODS,Singapore,1.334729,103.784429,
MAR THOMA MANSIONS,Singapore,1.328025,103.863271,
MARGATE POINT,Singapore,1.299771,103.888799,
MARGATE TERRACE,Singapore,1.298021,103.88863,
MARINA BAY RESIDENCES,Singapore,1.279434,103.85529,
MARINA BAY SUITES,Singapore,1.280389,103.852106,
MARINA COLLECTION,Singapore,1.244276,103.839877,
MARINA ONE RESIDENCES,Singapore,1.27704,103.85337,
MARINE BLUE,Singapore,1.303548,103.905176,
MARINE GARDEN,Singapore,1.275987,103.867693,
MARINE MANSION,Singapore,1.305192,103.907063,
MARINE MEADOWS,Singapore,1.304804,103.906718,
MARINE VIEW MANSIONS,Singapore,1.303637,103.905411,
MARINE VILLE,Singapore,1.304408,103.906745,
MARLENE VILLE,Singapore,1.360386,103.871698,
MARSHALL LODGE,Singapore,1.307107,103.900925,
MARTIA 8,Singapore,1.307313,103.910736,
MARTIA RESIDENCE,Singapore,1.307376,103.910861,
MARTIN EDGE,Singapore,1.292344,103.837503,
MARTIN NO 38,Singapore,1.292161,103.837968,
MARTIN PLACE RESIDENCES,Singapore,1.294075,103.838133,
MARTINA MANSIONS,Singapore,1.317561,103.833244,
MARYLAND ESTATE,Singapore,1.319632,103.786065,
MARYMOUNT VIEWS,Singapore,1.352843,103.840918,
MATLOCK RESIDENCES,Singapore,1.348774,103.863534,
MAYA,Singapore,1.309289,103.908011,
MAYBELLE LODGE,Singapore,1.312343,103.909355,
MAYFAIR GARDENS,Singapore,1.338577,103.781465,
MAYFAIR PARK,Singapore,1.341333,103.780822,
MAYFAIR RESIDENCES,Singapore,1.34568,103.733506,
MAYFLOWER GARDENS,Singapore,1.373519,103.838927,
MAYFLOWER VILLE,Singapore,1.373,103.838323,
MAYSPRINGS,Singapore,1.377405,103.76331,
MCMAHON PARK,Singapore,1.315889,103.787082,
MEADOWLODGE,Singapore,1.341737,103.773356,
MEADOWS @ PEIRCE,Singapore,1.380296,103.827337,
MEDALLION,Singapore,1.344234,103.862557,
MEDGE,Singapore,1.323359,103.850154,
MEIER SUITES,Singapore,1.298805,103.888232,
MELINIA COURT,Singapore,1.352083,103.819836,
MELODY VILLAS,Singapore,1.389189,103.838378,
MELOSA,Singapore,1.312566,103.88552,
MELROSE PARK,Singapore,1.293611,103.830003,
MELROSE VILLAS,Singapore,1.310331,103.893342,
MELROSE VILLE,Singapore,1.310331,103.893342,
MELVILLE PARK,Singapore,1.348055,103.958463,
MENDON SPRING,Singapore,1.278326,103.787467,
MERA EAST,Singapore,1.318213,103.909483,
MERA GARDENS,Singapore,1.352083,103.819836,
MERA SPRINGS,Singapore,1.314782,103.846823,
MERA TERRACE,Singapore,1.347574,103.963573,
MERALODGE,Singapore,1.354183,103.761412,
MERAPRIME,Singapore,1.28713,103.827669,
MERAWOODS,Singapore,1.317103,103.783439,
MERGUI MANSIONS,Singapore,1.317313,103.851787,
MERIDIAN 38,Singapore,1.352083,103.819836,
MERLIN MANSION,Singapore,1.352083,103.819836,
MERLOT VILLE,Singapore,1.314808,103.841959,
METRO LOFT,Singapore,1.352083,103.819836,
MEYA LODGE,Singapore,1.331137,103.866981,
MEYER MELODIA,Singapore,1.298376,103.886535,
MEYER PARK,Singapore,1.296948,103.891626,
MEYER RESIDENCE,Singapore,1.298595,103.886411,
MI CASA,Singapore,1.340841,103.772524,
MIAPLACE,Singapore,1.299156,103.88768,
MICHAELS' RESIDENCES,Singapore,1.370368,103.773441,
MIDTOWN RESIDENCES,Singapore,1.370524,103.895062,
MILFORD VILLAS,Singapore,1.345704,103.868828,
MILL CREEK,Singapore,1.319545,103.909833,
MILL POINT,Singapore,1.292931,103.830276,
MILLAGE,Singapore,1.316914,103.899011,
MIMOSA GARDENS,Singapore,1.384104,103.861937,
MIMOSA PARK,Singapore,1.383583,103.862948,
MIMOSA TERRACE,Singapore,1.384107,103.860883,
MIMOSA VALE,Singapore,1.382741,103.860139,
MIMOSA VILLAS,Singapore,1.352083,103.819836,
MIN YUAN,Singapore,1.298886,103.851465,
MINBU COURT,Singapore,1.324201,103.84926,
MINBU VILLA,Singapore,1.325456,103.848193,
MING PARK,Singapore,1.360985,103.828957,
MING TECK PARK,Singapore,1.319658,103.78838,
MINT RESIDENCES @ JANSEN,Singapore,1.359662,103.877224,
MIRAGE TOWER,Singapore,1.292031,103.834261,
MIRAMAR GARDENS,Singapore,1.28852,103.837389,
MIRO,Singapore,1.313787,103.842455,
MISTRAL PARK,Singapore,1.339155,103.955634,
MODA,Singapore,1.349718,103.881869,
MODENA,Singapore,1.342479,103.954823,
MON JERVOIS,Singapore,1.293724,103.822419,
MONARCHY APARTMENTS,Singapore,1.324934,103.850203,
MONDO MANSION BUILDING,Singapore,1.346461,103.871289,
MONT TIMAH,Singapore,1.346671,103.777398,
MONTCLAIR @ WHITLEY,Singapore,1.326195,103.837212,
MONTEBLEU,Singapore,1.323577,103.849905,
MONTEREY PARK CONDOMINIUM,Singapore,1.316744,103.753616,
MONTROSA,Singapore,1.35705,103.759873,
MONTROSE TERRACE,Singapore,1.352083,103.819836,
MONTVIEW,Singapore,1.316711,103.777301,
MONVILLE MANSIONS,Singapore,1.32702,103.845626,
MOONSTONE RESIDENCES,Singapore,1.327169,103.865738,
MOONSTONE ROYALE,Singapore,1.327635,103.866062,
MOONSTONE VIEW,Singapore,1.327474,103.865733,
MORIMASA GARDENS,Singapore,1.315842,103.838695,
MORO MANSIONS,Singapore,1.315248,103.889507,
MOULMEIN COURT,Singapore,1.319003,103.850147,
MOUNT ECHO PARK,Singapore,1.296132,103.819863,
MOUNT FABER LODGE,Singapore,1.268876,103.824615,
MOUNT ROSIE GARDEN,Singapore,1.322881,103.835271,
MOUNT ROSIE TERRACE,Singapore,1.322213,103.834183,
MOUNT ROSIE VILLAS,Singapore,1.322881,103.835271,
MOUNT SINAI,Singapore,1.317553,103.780458,
MOUNT SINAI RESIDENCES,Singapore,1.316995,103.776985,
MOUNT SOPHIA SUITES,Singapore,1.302011,103.849206,
MOUNTBATTEN LIGHTS,Singapore,1.300621,103.888418,
MOUNTBATTEN LODGE,Singapore,1.302597,103.898106,
MOUNTBATTEN REGENCY,Singapore,1.300621,103.888418,
MOUNTBATTEN SUITES,Singapore,1.30309,103.900123,
MUGLISTON HILL,Singapore,1.386502,103.878616,
MULBERRY TREE,Singapore,1.318175,103.846405,
MUN WAH GARDEN,Singapore,1.38202,103.831544,
MURANO,Singapore,1.289515,103.775774,
MUSWELL VILLAS,Singapore,1.344536,103.861939,
MUTIARA CREST,Singapore,1.29584,103.829262,
MUTIARA VIEW,Singapore,1.295446,103.828491,
MY MANHATTAN,Singapore,1.341659,103.953661,
NADIA MANSIONS,Singapore,1.328048,103.847585,
NAGARATHAR BUILDING,Singapore,1.293896,103.842867,
NAMLY COURT,Singapore,1.323411,103.798091,
NANAK MANSIONS,Singapore,1.352083,103.819836,
NANYANG PARK,Singapore,1.34325,103.683692,
NASSIM JADE,Singapore,1.307052,103.826193,
NASSIM LODGE,Singapore,1.307052,103.826193,
NASSIM MANSION,Singapore,1.308699,103.820258,
NASSIM PARK RESIDENCES,Singapore,1.308229,103.823735,
NASSIM REGENCY,Singapore,1.311898,103.819605,
NASSIM WOODS,Singapore,1.306708,103.821328,
NASSIMVILLE,Singapore,1.307812,103.82522,
NATHAN PLACE,Singapore,1.295332,103.826254,
NATHAN RESIDENCES,Singapore,1.294722,103.827168,
NATHAN SUITES,Singapore,1.295062,103.827161,
NATURA@HILLVIEW,Singapore,1.352794,103.759054,
NATURALIS,Singapore,1.30984,103.908363,
NATURE MANSIONS,Singapore,1.314168,103.915079,
NAUNG RESIDENCE,Singapore,1.368341,103.892652,
NEPTUNE COURT,Singapore,1.306158,103.920988,
NESS,Singapore,1.350525,103.848691,
NEW COURT,Singapore,1.328134,103.843678,
NEW FUTURA,Singapore,1.298136,103.834132,
NEW SOO CHOW GARDENS,Singapore,1.353824,103.831206,
NEWEST,Singapore,1.31642,103.757676,
NEWTON 18,Singapore,1.314416,103.841228,
NEWTON 21,Singapore,1.314888,103.84047,
NEWTON EDGE,Singapore,1.312548,103.842108,
NEWTON GEMS,Singapore,1.317488,103.842088,
NEWTON IMPERIAL,Singapore,1.315403,103.841465,
NEWTON LODGE,Singapore,1.323071,103.841473,
NEWTON ONE,Singapore,1.314021,103.839411,
NEWTON SUITES,Singapore,1.317987,103.842058,
NICOLE GREEN,Singapore,1.309456,103.879851,
NICON GARDENS,Singapore,1.378093,103.758353,
NIM GARDENS,Singapore,1.381066,103.863331,
NIN RESIDENCE,Singapore,1.332714,103.869921,
NINE RESIDENCES,Singapore,1.280688,103.849207,
NINETEEN SHELFORD ROAD,Singapore,1.326091,103.812233,
NIVEN LOFT,Singapore,1.303109,103.849528,
NIVEN SUITES,Singapore,1.303109,103.849528,
NOMU,Singapore,1.299786,103.846851,
NON-LANDED HOUSING DEVELOPMENT,Singapore,1.352083,103.819836,
NORMANTON PARK,Singapore,1.287473,103.792597,
NORTHILL,Singapore,1.417887,103.759312,
NORTHOAKS,Singapore,1.445167,103.806391,
NORTHSHORE BUNGALOWS,Singapore,1.417787,103.902383,
NORTHVALE,Singapore,1.38754,103.7452,
NORTHWOOD,Singapore,1.426266,103.823757,
NOTTINGHILL SUITES,Singapore,1.339099,103.769175,
NOUVEL 18,Singapore,1.310866,103.828352,
NOUVELLE PARK,Singapore,1.367389,103.877527,
NOVA 48,Singapore,1.325051,103.849257,
NOVA 88,Singapore,1.324846,103.84968,
NOVELIS,Singapore,1.318871,103.8459,
NOVENA COURT,Singapore,1.322639,103.842051,
NOVENA GARDENS,Singapore,1.320517,103.842094,
NOVENA HILL,Singapore,1.323046,103.842952,
NOVENA LODGE,Singapore,1.323071,103.841473,
NOVENA REGENCY,Singapore,1.32124,103.841592,
NOVENA SUITES,Singapore,1.318903,103.844753,
NUOVO,Singapore,1.384166,103.842701,
NUTMEG COURT,Singapore,1.304659,103.834611,
NV RESIDENCES,Singapore,1.371255,103.944191,
OAK VILLAS,Singapore,1.330604,103.7911,
OASIS @ ELIAS,Singapore,1.377218,103.941675,
OASIS @ MULBERRY,Singapore,1.33206,103.8786,
OASIS GARDEN,Singapore,1.338804,103.882877,
OCEAN 8,Singapore,1.258338,103.81763,
OCEAN FRONT SUITES,Singapore,1.379244,103.960791,
OCEAN PARK,Singapore,1.308448,103.918379,
OEI TIONG HAM PARK,Singapore,1.31499,103.792738,
OEI TIONG HAM PARK RESIDENCES,Singapore,1.31499,103.792738,
OKIO,Singapore,1.322069,103.853233,
OLA RESIDENCES,Singapore,1.302996,103.898766,
OLEANAS RESIDENCE,Singapore,1.293577,103.839166,
OLEANDER TOWERS,Singapore,1.332989,103.843957,
OLINA LODGE,Singapore,1.309453,103.800572,
ONAN COURT,Singapore,1.311082,103.900419,
ONAN SUITES,Singapore,1.311774,103.900126,
ONE @ PULASAN,Singapore,1.312263,103.905927,
ONE AKYAB,Singapore,1.322787,103.848012,
ONE AMBER,Singapore,1.301488,103.898167,
ONE BALMORAL,Singapore,1.349718,103.881869,
ONE CHATSWORTH,Singapore,1.299212,103.824859,
ONE CHILTERN,Singapore,1.348575,103.862057,
ONE DEVONSHIRE,Singapore,1.29738,103.837869,
ONE DUCHESS,Singapore,1.324968,103.808398,
ONE DUSUN RESIDENCES,Singapore,1.326906,103.843772,
ONE EIGHTIES RESIDENCES,Singapore,1.314847,103.90529,
ONE FORT,Singapore,1.300196,103.885147,
ONE JERVOIS,Singapore,1.292523,103.82466,
ONE K GREENLANE,Singapore,1.311231,103.893161,
ONE LEICESTER,Singapore,1.330014,103.867151,
ONE LYNWOOD,Singapore,1.34416,103.862755,
ONE NORTH BRIDGE,Singapore,1.290025,103.848897,
ONE OXLEY RISE,Singapore,1.299095,103.841614,
ONE ROSYTH,Singapore,1.362927,103.873745,
ONE SHENTON,Singapore,1.279584,103.850656,
ONE ST MICHAEL'S,Singapore,1.324657,103.865195,
ONE SURIN,Singapore,1.354255,103.879774,
ONE TREE HILL GARDENS,Singapore,1.301154,103.825625,
ONE TREE HILL MANSIONS,Singapore,1.300709,103.825102,
ONE TREE HILL RESIDENCE,Singapore,1.30071,103.824859,
ONE-NORTH RESIDENCES,Singapore,1.302612,103.789997,
ONEROBEY,Singapore,1.367163,103.882034,
ONZE @ TANJONG PAGAR,Singapore,1.274901,103.842111,
OPAL SUITES,Singapore,1.327566,103.867325,
OPERA ESTATE,Singapore,1.319391,103.923575,
OPTIMA @ TANAH MERAH,Singapore,1.328379,103.946777,
ORANGE GROVE RESIDENCES,Singapore,1.313137,103.825374,
ORANGE REGENCY,Singapore,1.31194,103.824772,
ORCHARD BEL AIR,Singapore,1.302419,103.824821,
ORCHARD COURT,Singapore,1.298674,103.84149,
ORCHARD SCOTTS,Singapore,1.309647,103.839109,
ORCHARD TOWERS,Singapore,1.306829,103.828984,
ORCHARD VIEW,Singapore,1.301651,103.838059,
ORCHID APARTMENTS,Singapore,1.334134,103.79865,
ORCHID PARK CONDOMINIUM,Singapore,1.412497,103.835257,
ORCHID VILLAGE,Singapore,1.335572,103.801818,
ORION,Singapore,1.30853,103.827627,
OUE TWIN PEAKS,Singapore,1.299436,103.833778,
OWEN 88,Singapore,1.313486,103.853432,
OWEN COURT,Singapore,1.313734,103.853106,
OXFORD SUITES,Singapore,1.298023,103.851877,
OXLEY EDGE,Singapore,1.29562,103.841572,
OXLEY GARDEN,Singapore,1.297969,103.842192,
OXLEY MANSION,Singapore,1.298667,103.841088,
OXLEY NEO RESIDENCES,Singapore,1.297008,103.841021,
OXLEY RESIDENCE,Singapore,1.297008,103.841021,
OXLEY THANKSGIVING RESIDENCE,Singapore,1.296265,103.840942,
PACIFIC MANSION,Singapore,1.294731,103.836973,
PALACIO,Singapore,1.302974,103.859875,
PALAZZETTO,Singapore,1.29921,103.884013,
PALISADES,Singapore,1.286893,103.779765,
PALM GALLERIA,Singapore,1.312782,103.912071,
PALM GARDENS,Singapore,1.378176,103.746234,
PALM GREEN,Singapore,1.291544,103.76965,
PALM GROVE CONDOMINIUM,Singapore,1.360144,103.878318,
PALM GROVE REGENCY,Singapore,1.360144,103.878318,
PALM GROVE TERRACE,Singapore,1.360457,103.879502,
PALM HAVEN,Singapore,1.36033,103.877739,
PALM ISLES,Singapore,1.356924,103.964905,
PALM LODGE,Singapore,1.315315,103.889592,
PALM LOFT,Singapore,1.314814,103.903413,
PALM MANSIONS,Singapore,1.289372,103.776393,
PALM OASIS,Singapore,1.315859,103.908655,
PALM RESIDENCE,Singapore,1.343298,103.769198,
PALM SPRING,Singapore,1.316536,103.831778,
PALM TREE NINES,Singapore,1.320455,103.952567,
PALM VISTA,Singapore,1.317118,103.909642,
PALMERA EAST,Singapore,1.321008,103.910173,
PALMERA RESIDENCE,Singapore,1.309486,103.911256,
PALMS @ SIXTH AVENUE,Singapore,1.324317,103.792988,
PALMVILLE TERRACE,Singapore,1.352083,103.819836,
PALMWOODS,Singapore,1.332466,103.947376,
PANDAN VALLEY,Singapore,1.319434,103.778499,
PAPILLON,Singapore,1.326952,103.849192,
PARADISE ISLAND,Singapore,1.250638,103.843769,
PARADISE PALMS,Singapore,1.309845,103.895343,
PARBURY HILL CONDOMINIUM,Singapore,1.317535,103.943796,
PARC ASTON,Singapore,1.330047,103.86756,
PARC BLEU,Singapore,1.314346,103.907435,
PARC CENTENNIAL,Singapore,1.313471,103.843953,
PARC CENTROS,Singapore,1.403618,103.904233,
PARC ELEGANCE,Singapore,1.317734,103.908641,
PARC EMILY,Singapore,1.304362,103.848768,
PARC HAVEN,Singapore,1.324316,103.854637,
PARC IMPERIAL,Singapore,1.281421,103.783859,
PARC LIFE,Singapore,1.443894,103.81842,
PARC MACKENZIE,Singapore,1.306242,103.848074,
PARC MONDRIAN,Singapore,1.33614,103.868082,
PARC OASIS,Singapore,1.343584,103.733943,
PARC OLYMPIA,Singapore,1.355773,103.965051,
PARC PALAIS,Singapore,1.357555,103.766283,
PARC ROSEWOOD,Singapore,1.427898,103.785393,
PARC SEABREEZE,Singapore,1.303842,103.906016,
PARC SOMME,Singapore,1.311094,103.858442,
PARC SOPHIA,Singapore,1.30145,103.847616,
PARC STEVENS,Singapore,1.316783,103.827294,
PARC VERA,Singapore,1.363768,103.895123,
PARC VISTA,Singapore,1.344456,103.717264,
PARK 1 SUITES,Singapore,1.312475,103.881544,
PARK COURT,Singapore,1.315603,103.900081,
PARK EAST,Singapore,1.300784,103.912187,
PARK GREEN,Singapore,1.380682,103.899967,
PARK HOUSE,Singapore,1.303641,103.825716,
PARK INFINIA AT WEE NAM,Singapore,1.314499,103.8429,
PARK NATURA,Singapore,1.346615,103.765486,
PARK RESIDENCES KOVAN,Singapore,1.361154,103.885038,
PARK VIEW MANSION,Singapore,1.341419,103.76029,
PARK VILLAS,Singapore,1.36795,103.880144,
PARK WEST,Singapore,1.31727,103.759851,
PARKLEIGH COURT,Singapore,1.352083,103.819836,
PARKSHORE,Singapore,1.296801,103.870493,
PARKVIEW APARTMENTS,Singapore,1.341419,103.76029,
PARKVIEW ECLAT,Singapore,1.300693,103.824191,
PARKWAY APARTMENT,Singapore,1.299389,103.899421,
PARKWAY LODGE,Singapore,1.305232,103.905835,
PARKWAY MANSION,Singapore,1.299389,103.899421,
PARKWAY VIEW,Singapore,1.302814,103.904062,
PARRY COURT,Singapore,1.364304,103.878878,
PARRY GREEN,Singapore,1.463592,103.810154,
PARRY PARK,Singapore,1.365999,103.878471,
PARRYVILLE,Singapore,40.818148,-75.672688,x
PARVIS,Singapore,1.310444,103.800749,
PASADENA,Singapore,1.315265,103.845454,
PASIR PANJANG COURT,Singapore,1.291926,103.772412,
PASIR PANJANG GARDENS,Singapore,1.281157,103.784521,
PASIR PANJANG LODGE,Singapore,1.282252,103.84434,
PASIR RIS BEACH PARK,Singapore,1.373302,103.952395,
PASIR VIEW PARK,Singapore,1.278906,103.787563,
PASTORAL VIEW,Singapore,1.323257,103.847947,
PATENT PLACE,Singapore,1.342822,103.767831,
PATERSON LINC,Singapore,1.303259,103.830034,
PATERSON RESIDENCE,Singapore,1.299956,103.830215,
PATERSON SUITES,Singapore,1.301006,103.8302,
PAVILION 11,Singapore,1.324104,103.848722,
PAVILION PARK,Singapore,1.369531,103.751938,
PAYA LEBAR GARDENS,Singapore,1.32435,103.890777,
PAYA LEBAR RESIDENCES,Singapore,1.317515,103.891574,
PEACE CENTRE / MANSIONS,Singapore,1.301314,103.849063,
PEACH GARDEN,Singapore,1.285227,103.849263,
PEAK COURT,Singapore,1.32534,103.840958,
PEAKVIEW ESTATE,Singapore,1.331091,103.944196,
PEAKVILLE PARK,Singapore,1.33294,103.944587,
PEARL BANK APARTMENT,Singapore,1.283079,103.839535,
PEBBLE BAY,Singapore,1.297397,103.872674,
PEIRCE VALE,Singapore,1.352083,103.819836,
PEIRCE VIEW,Singapore,1.37246,103.828366,
PEIRCE VILLAS,Singapore,1.303767,103.806118,
PENANG SERVICE APARTMENTS,Singapore,1.31346,103.887733,
PENG'S COURT,Singapore,1.284562,103.842348,
PEOPLE'S GARDEN,Singapore,1.367512,103.890278,
PEOPLE'S PARK CENTRE,Singapore,1.285902,103.843985,
PEOPLE'S PARK COMPLEX,Singapore,1.284319,103.842596,
PEPPERMINT GROVE,Singapore,1.406892,103.902015,
PEPYS HILL CONDOMINIUM,Singapore,1.277885,103.793825,
PERMAI RESIDENCES,Singapore,1.271871,103.827283,
PETAIN COURT,Singapore,1.311857,103.858981,
PETAIN RD/TYRWHITT RD CONSERVATION AREA,Singapore,1.310854,103.859645,
PHILLIPS RESIDENCE,Singapore,1.363637,103.877259,
PHOENIX HEIGHTS,Singapore,1.313466,103.790491,
PICARDY GARDENS,Singapore,1.333945,103.948884,
PIN MANSIONS,Singapore,1.364425,103.886279,
PINE COURT,Singapore,1.302199,103.836232,
PINE GROVE,Singapore,1.317336,103.775025,
PINE RESIDENCES,Singapore,1.29081,103.78108,
PINE SPRINGS,Singapore,1.314684,103.830599,
PINE VILLAS,Singapore,1.414557,103.758761,
PINEHURST CONDOMINIUM,Singapore,1.312509,103.915074,
PINETREE CONDOMINIUM,Singapore,1.314983,103.82933,
PINEVALE,Singapore,1.358651,103.933089,
PINEWOOD GARDENS,Singapore,1.31589,103.829488,
PINEWOOD TERRACE,Singapore,1.428595,103.779957,
PINNACLE 16,Singapore,1.324472,103.84625,
PLATINA GARDENS,Singapore,1.427965,103.825022,
PLATINUM EDGE,Singapore,1.330412,103.866798,
PLEASANT HILL LODGE,Singapore,1.297597,103.844948,
POETS VILLAS,Singapore,1.381544,103.828368,
POH HENG COURT,Singapore,1.301526,103.905019,
POH HUAT GARDENS,Singapore,1.366528,103.88222,
POINT LOMA,Singapore,1.329546,103.811619,
POLLEN & BLEU,Singapore,1.313477,103.806701,
POMEX COURT,Singapore,1.315002,103.899753,
PONGGOL PARK,Singapore,1.377194,103.897724,
POSHGROVE EAST,Singapore,1.308833,103.909892,
POTONG PASIR HUDC,Singapore,1.3332,103.868354,
PRESIDENT GARDENS,Singapore,1.385507,103.836706,
PRESIDIO,Singapore,1.292612,103.86031,
PRESTIGE HEIGHTS,Singapore,1.325105,103.852298,
PRESTIGE LOFT,Singapore,1.310393,103.91146,
PRESTIGE POINT,Singapore,1.349592,103.880132,
PRESTIGE RESIDENCE,Singapore,1.316814,103.910056,
PRESTO@UPPER SERANGOON,Singapore,1.345851,103.871531,
PRIME RESIDENCE,Singapore,1.311227,103.882437,
PRIMEDGE,Singapore,1.312546,103.888062,
PRIMO RESIDENCES,Singapore,1.355389,103.888556,
PRINCESS OF WALES PARK,Singapore,1.323364,103.808137,
PRINCETON VALE,Singapore,1.352083,103.819836,
PRISTINE HEIGHTS,Singapore,1.317094,103.851983,
PRIVE,Singapore,1.290359,103.845619,
PROSPERO VILLE,Singapore,1.31371,103.914442,
PROXIMO,Singapore,1.317354,103.828804,
PUBLIC MANSION,Singapore,1.32638,103.848708,
Q BAY RESIDENCES,Singapore,1.350789,103.927433,
QUBE SUITES,Singapore,1.329812,103.908071,
QUEEN ASTRID GARDENS,Singapore,1.318346,103.78932,
QUEEN ASTRID PARK,Singapore,1.318097,103.790474,
QUEENS,Singapore,1.297557,103.852249,
QUEENSBERRY LODGE,Singapore,1.295067,103.827447,
QUEENSWAY TOWER,Singapore,1.287593,103.803136,
QUESTA @ DUNMAN,Singapore,1.309822,103.896631,
QUINTERRA,Singapore,1.318632,103.780605,
R MAISON,Singapore,1.34337,103.869941,
R66 APARTMENTS,Singapore,1.314058,103.854445,
RACE COURSE 138,Singapore,1.310082,103.852201,
RACE COURSE MANSION,Singapore,1.309943,103.852126,
RACE COURSE RD/OWEN RD CON AREA,Singapore,1.312954,103.853726,
RACE COURSE RD/OWEN RD CONSERVATION ARE,Singapore,1.312954,103.853726,
RADIANCE @ BUKIT TIMAH,Singapore,1.342425,103.776462,
RADIX,Singapore,1.317907,103.911648,
RAFFLES PARK,Singapore,1.284184,103.85151,
RAFFLESIA CONDOMINIUM,Singapore,1.347824,103.843502,
RAINBOW MANSION,Singapore,1.352083,103.819836,
RAINTREE GARDENS,Singapore,1.337498,103.864497,
RAJAH TOWERS,Singapore,1.32759,103.848729,
RANGOON 88,Singapore,1.314375,103.854282,
RANGOON COURT,Singapore,1.315073,103.853716,
RANGOON VIEW,Singapore,1.315073,103.853716,
RAYA GARDEN,Singapore,1.346768,103.880912,
RE CHARGE @ 303,Singapore,1.352083,103.819836,
REBECCA PARK,Singapore,1.320819,103.800751,
RED BRICKS VILLAS,Singapore,1.352083,103.819836,
REFLECTIONS AT KEPPEL BAY,Singapore,1.266614,103.81036,
REGAL 35,Singapore,1.315655,103.888455,
REGAL COURT,Singapore,1.324545,103.852987,
REGENCY LODGE,Singapore,1.295642,103.827086,
REGENCY PARK,Singapore,1.296869,103.825859,
REGENCY SUITES,Singapore,1.284418,103.829143,
REGENT GROVE,Singapore,1.40015,103.749394,
REGENT HEIGHTS,Singapore,1.35279,103.755761,
REGENT PARK,Singapore,1.317252,103.761539,
REGENT RESIDENCES,Singapore,1.324267,103.864679,
REGENT VILLAS,Singapore,1.321489,103.790803,
REGENTVILLE,Singapore,1.374479,103.878409,
REGINA HILL,Singapore,1.345627,103.765259,
REGIS MANSIONS,Singapore,1.343067,103.768158,
REIGNWOOD HAMILTON SCOTTS,Singapore,1.311419,103.835921,
RESIDENCE 118,Singapore,1.312367,103.914005,
RESIDENCE 66,Singapore,1.316461,103.908914,
RESIDENCE 8,Singapore,1.302041,103.825602,
RESIDENCES 88,Singapore,1.306347,103.847522,
RESIDENCES @ EVELYN,Singapore,1.315597,103.839437,
RESIDENCES @ JANSEN,Singapore,1.360205,103.876559,
RESIDENCES @ KILLINEY,Singapore,1.296853,103.838147,
RESIDENCES @ LIMAU,Singapore,1.32261,103.947836,
RESIDENCES @ SOMME,Singapore,1.31165,103.858776,
RESIDENCES AT 338A,Singapore,1.296375,103.838015,
RESIDENCES AT EMERALD HILL,Singapore,1.305099,103.839199,
RESIDENCES BOTANIQUE,Singapore,1.356803,103.876254,
REZI 26,Singapore,1.312971,103.885148,
REZI 3TWO,Singapore,1.312125,103.886792,
RHAPSODY ON MOUNT ELIZABETH,Singapore,1.306667,103.836095,
RIA APARTMENTS,Singapore,1.296831,103.874581,
RICCHEZZA,Singapore,1.311467,103.9151,
RICH EAST GARDEN,Singapore,1.303775,103.902914,
RICH MANSION,Singapore,1.317356,103.833578,
RICHMOND PARK,Singapore,1.30484,103.836491,
RICHMOND VILLE,Singapore,1.352083,103.819836,
RIDGE COURT,Singapore,1.352083,103.819836,
RIDGEVALE GARDENS,Singapore,1.352083,103.819836,
RIDGEWOOD,Singapore,1.317084,103.778478,
RIO CASA,Singapore,1.373145,103.901532,
RIO GARDENS,Singapore,1.326745,103.864434,
RIO VISTA,Singapore,1.373145,103.901532,
RIPPLE BAY,Singapore,1.377236,103.96113,
RIS GRANDEUR,Singapore,1.374176,103.939746,
RISING COURT,Singapore,1.307087,103.904362,
RISING SUITES,Singapore,1.352083,103.819836,
RITZ @ FARRER,Singapore,1.312614,103.854862,
RITZ MANSIONS,Singapore,1.32501,103.85217,
RITZ REGENCY,Singapore,1.352083,103.819836,
RIVA LODGE,Singapore,1.296705,103.8322,
RIVAGE,Singapore,1.299614,103.888716,
RIVER ISLES,Singapore,1.397198,103.913138,
RIVER PLACE,Singapore,1.289397,103.840599,
RIVER VALLEY APARTMENTS,Singapore,1.295254,103.829179,
RIVER VALLEY CONSERVATION AREA,Singapore,1.294512,103.8458,
RIVER VALLEY COURT,Singapore,1.295541,103.837482,
RIVERBANK @ FERNVALE,Singapore,1.39492,103.880834,
RIVERBAY,Singapore,1.327974,103.862481,
RIVERDALE RESIDENCE,Singapore,1.296711,103.834968,
RIVEREDGE,Singapore,1.30076,103.8819,
RIVERGATE,Singapore,1.291347,103.836948,
RIVERIA GARDENS,Singapore,1.297281,103.834671,
RIVERPARC RESIDENCE,Singapore,1.397936,103.917611,
RIVERSAILS,Singapore,1.378561,103.902867,
RIVERSHIRE,Singapore,1.296735,103.833042,
RIVERSIDE 48,Singapore,1.290903,103.839877,
RIVERSOUND RESIDENCE,Singapore,1.381166,103.902626,
RIVERTREES RESIDENCES,Singapore,1.393785,103.880661,
RIVERVALE CREST,Singapore,1.3847,103.9033,
RIVIERA 38,Singapore,1.328363,103.863379,
RIVIERA POINT,Singapore,1.295392,103.838711,
RIVIERA RESIDENCES,Singapore,1.314019,103.939754,
RIZ HAVEN,Singapore,1.379767,103.962761,
ROBERTSON 100,Singapore,1.29159,103.837907,
ROBERTSON BLUE,Singapore,1.290162,103.83723,
ROBERTSON EDGE,Singapore,1.292946,103.840601,
ROBIN REGALIA,Singapore,1.31676,103.82792,
ROBIN RESIDENCES,Singapore,1.319509,103.827178,
ROBIN SUITES,Singapore,1.317354,103.828804,
ROBIN VILLAGE,Singapore,1.315518,103.628175,
ROBINSON SUITES,Singapore,1.317354,103.828804,
ROCCA BALESTIER,Singapore,1.321262,103.852558,
ROCHALIE RESIDENCES,Singapore,1.301453,103.821299,
ROCHELLE AT NEWTON,Singapore,1.31389,103.84199,
ROMAN TERRACE,Singapore,1.352083,103.819836,
ROSALIA PARK,Singapore,1.349385,103.8792,
ROSE APARTMENTS,Singapore,1.310715,103.807281,
ROSE MAISON,Singapore,1.334482,103.889601,
ROSE VILLE,Singapore,1.310331,103.893342,
ROSEDALE,Singapore,1.352083,103.819836,
ROSELANE COURT,Singapore,1.310297,103.893458,
ROSEVALE,Singapore,1.31606,103.843357,
ROSEWOOD,Singapore,1.42952,103.78532,
ROSEWOOD SUITES,Singapore,1.429008,103.785695,
ROSIE VIEW,Singapore,1.322881,103.835271,
ROSYTH LODGE,Singapore,1.362927,103.873745,
ROSYTH RESIDENCE,Singapore,1.362577,103.878955,
ROSYTH TERRACE,Singapore,1.363051,103.876579,
ROSYTH VILLE,Singapore,1.362861,103.873944,
ROXY SQUARE,Singapore,1.303397,103.90462,
ROYAL COURT,Singapore,1.343659,103.769041,
ROYALE MANSIONS,Singapore,1.312068,103.906228,
ROYALVILLE,Singapore,1.331713,103.793967,
ROYCE RESIDENCES,Singapore,1.311336,103.876347,
RV EDGE,Singapore,1.294804,103.828084,
RV POINT,Singapore,1.293955,103.842177,
RV RESIDENCES,Singapore,1.294358,103.828451,
RV SUITES,Singapore,1.29554,103.829196,
SAGE,Singapore,1.278245,103.850729,
SAI HO BUILDING,Singapore,1.355004,103.87856,
SALLIM LODGE,Singapore,1.32604,103.882134,
SAM KIANG MANSIONS,Singapore,1.298049,103.835458,
SAM LEONG MANSION,Singapore,1.309787,103.856411,
SANCTUARY @813,Singapore,1.356855,103.881422,
SANCTUARY GREEN,Singapore,1.296988,103.871468,
SANDALWOOD,Singapore,1.30989,103.903177,
SANDERIANA,Singapore,1.352083,103.819836,
SANDY ISLAND,Singapore,1.242288,103.838082,
SANDY PALM,Singapore,1.378812,103.959818,
SANFORD PARK,Singapore,1.352083,103.819836,
SANNY PARK,Singapore,1.352083,103.819836,
SANT RITZ,Singapore,1.329837,103.868961,
SANTA FE MANSIONS,Singapore,1.300136,103.888799,
SAPPHIRE 99,Singapore,1.352083,103.819836,
SAPPHIRE COURT,Singapore,1.312839,103.911011,
SARACA GARDENS,Singapore,1.386999,103.859062,
SARACA VILLAS,Singapore,1.383773,103.858914,
SARHAD VILLE,Singapore,1.280583,103.788528,
SARKIES GARDENS,Singapore,1.314302,103.836837,
SARKIES GREEN,Singapore,1.314302,103.836837,
SARKIES MANSIONS,Singapore,1.313685,103.836121,
SAVANNAH CONDOPARK,Singapore,1.349102,103.961971,
SAVOY PARK,Singapore,1.333001,103.768276,
SCENIC HEIGHTS,Singapore,1.321643,103.852166,
SCOTTS 28,Singapore,1.309728,103.834895,
SCOTTS HIGHPARK,Singapore,1.311959,103.836991,
SCOTTS SQUARE,Singapore,1.30588,103.832955,
SCULPTURA ARDMORE,Singapore,1.309151,103.829987,
SEA AVENUE MANSIONS,Singapore,1.305192,103.907063,
SEA AVENUE RESIDENCES,Singapore,1.305192,103.907063,
SEA BREEZE TERRACE,Singapore,1.304222,103.906149,
SEA ESTA,Singapore,1.377223,103.959635,
SEA HORIZON,Singapore,1.376074,103.958647,
SEA VIEW PARK,Singapore,1.2996,103.897032,
SEAHILL,Singapore,1.298753,103.764461,
SEASCAPE,Singapore,1.239939,103.838201,
SEASIDE PARK,Singapore,1.3108,103.920403,
SEASONS PARK,Singapore,1.385296,103.839527,
SEASONS VIEW,Singapore,1.352263,103.841494,
SEASTRAND,Singapore,1.376639,103.961198,
SEASUITES,Singapore,1.282303,103.783027,
SEAVIEW POINT,Singapore,1.299596,103.899866,
SECOND AVENUE JUNCTION,Singapore,1.329977,103.799591,
SELANTING GREEN,Singapore,1.342871,103.76882,
SELBY GARDENS,Singapore,27.327062,-82.540228,x
SELEGIE CENTRE,Singapore,1.304204,103.8501,
SELETAR GARDEN,Singapore,1.404826,103.810355,
SELETAR HILLS ESTATE,Singapore,1.386931,103.86878,
SELETAR PARK RESIDENCE,Singapore,1.386126,103.869516,
SELETAR SPRINGS CONDOMINIUM,Singapore,1.38758,103.879075,
SELETAR VIEW,Singapore,1.384389,103.875965,
SELETARIS,Singapore,1.435877,103.825139,
SEMBAWANG COTTAGE,Singapore,1.426947,103.826128,
SEMBAWANG GARDENS ARCADE,Singapore,1.432476,103.82673,
SEMBAWANG HILLS ESTATE,Singapore,1.375985,103.830426,
SEMBAWANG PARK,Singapore,1.460382,103.83632,
SEMBAWANG SPRINGS ESTATE,Singapore,1.443459,103.826075,
SEMBAWANG SQUARE ESTATE,Singapore,1.432476,103.82673,
SEMBAWANG STRAITS ESTATE,Singapore,1.450419,103.828532,
SEMBAWANG VILLAS,Singapore,1.458647,103.82192,
SENG HUA GARDENS,Singapore,1.372576,103.861653,
SENG YONG VILLAS,Singapore,1.323787,103.918483,
SENNETT ESTATE,Singapore,1.328619,103.87007,
SENNETT RESIDENCE,Singapore,1.331906,103.86971,
SERANGOON GARDEN ESTATE,Singapore,1.363796,103.866235,
SERANGOON GARDEN PARK,Singapore,1.363796,103.866235,
SERANGOON PARK,Singapore,1.370386,103.900874,
SERANGOON VILLE,Singapore,1.366139,103.873163,
SERAYA 9,Singapore,1.307187,103.89965,
SERAYA BREEZE,Singapore,1.305807,103.899854,
SERAYA COURT,Singapore,1.306509,103.89978,
SERAYA VILLE,Singapore,1.306509,103.89978,
SERENE CENTRE,Singapore,1.322605,103.813699,
SERENE PARK,Singapore,1.322605,103.813699,
SERENEVIEW MANSIONS,Singapore,1.346084,103.867703,
SERENITY BREEZE,Singapore,1.313793,103.912223,
SERENITY PARK,Singapore,1.389353,103.858869,
SERENITY TERRACE,Singapore,1.319711,103.909618,
SETIA RESIDENCES,Singapore,1.315937,103.839962,
SEVEN CRESCENT,Singapore,1.329038,103.869707,
SEVEN HOLT ROAD,Singapore,1.294,103.825579,
SEVEN OAKS,Singapore,1.330403,103.789705,
SEVEN PALMS SENTOSA COVE,Singapore,1.239745,103.831122,
SEVENTY SAINT PATRICK'S,Singapore,1.307678,103.914898,
SHAMROCK PARK,Singapore,1.323089,103.796811,
SHAMROCK VILLAS,Singapore,1.323089,103.796811,
SHAN GATE APARTMENTS,Singapore,1.325692,103.846769,
SHANGHAI ONE,Singapore,1.294772,103.82779,
SHANGRI-LA PARK,Singapore,1.369788,103.833026,
SHANGRI-LA RESIDENCES,Singapore,1.31074,103.825302,
SHAW PLAZA - TWIN HEIGHTS,Singapore,1.324694,103.851477,
SHEARES VILLE,Singapore,1.293669,103.825338,
SHEBA LODGE,Singapore,1.352083,103.819836,
SHELFORD 23,Singapore,1.327891,103.812337,
SHELFORD GREEN,Singapore,1.324847,103.812343,
SHELFORD MANSIONS,Singapore,1.326255,103.808973,
SHELFORD REGENCY,Singapore,1.326768,103.810528,
SHELFORD SUITES,Singapore,1.326523,103.812642,
SHELFORD VIEW,Singapore,1.327485,103.811185,
SHEPHERD'S HILL ESTATE,Singapore,1.291761,103.806775,
SHERWOOD CONDOMINIUM,Singapore,1.345063,103.76793,
SHERWOOD TOWER,Singapore,1.339626,103.778905,
SHIRO,Singapore,1.327066,103.892701,
SHITESCAPE,Singapore,1.352083,103.819836,
SHUNFU VILLE,Singapore,1.352331,103.838822,
SIEW LIM PARK,Singapore,1.352083,103.819836,
SIGLAP CENTRE,Singapore,1.312468,103.923236,
SIGLAP COURT,Singapore,1.313587,103.923105,
SIGLAP GARDEN,Singapore,1.311711,103.925638,
SIGLAP HILL 33,Singapore,1.320352,103.919112,
SIGLAP LODGE,Singapore,1.313642,103.928606,
SIGLAP PARK,Singapore,1.310893,103.916841,
SIGLAP V,Singapore,1.312847,103.923734,
SIGNATURE AT LEWIS,Singapore,1.32113,103.823025,
SIGNATURE AT YISHUN,Singapore,1.417376,103.844622,
SIGNATURE CREST,Singapore,1.312468,103.893059,
SIGNATURE PARK,Singapore,1.340336,103.769626,
SIGNATURE RESIDENCE,Singapore,1.311054,103.892368,
SILAHIS APARTMENTS,Singapore,1.323665,103.909784,
SILAHIS VILLE,Singapore,1.323665,103.909784,
SILVER HILL,Singapore,1.352083,103.819836,
SILVERSCAPE,Singapore,1.312603,103.887173,
SILVERSEA,Singapore,1.299977,103.901818,
SIMEI GARDEN,Singapore,1.320225,103.92765,
SIMEI GREEN CONDOMINIUM,Singapore,1.340492,103.959347,
SIMON PLAZA,Singapore,1.361947,103.885048,
SIMS DORADO,Singapore,1.315729,103.890372,
SIMS EDGE,Singapore,1.316388,103.887937,
SIMS GREEN,Singapore,1.314395,103.884623,
SIMS MEADOWS,Singapore,1.316056,103.887811,
SIMS POINT,Singapore,1.313175,103.879462,
SIMS RESIDENCES,Singapore,1.316056,103.890896,
SIMS URBAN OASIS,Singapore,1.319116,103.881098,
SIMSVILLE,Singapore,1.317014,103.889734,
SIN CHUAN GARDEN,Singapore,1.3625,103.86836,
SIN MING CENTRE,Singapore,1.353709,103.836089,
SIN MING PLAZA,Singapore,1.352453,103.835708,
SIN THAI HIN BUILDING,Singapore,1.301902,103.851846,
SING LIAN BUILDING,Singapore,1.318484,103.910639,
SINGA HILLS,Singapore,1.330373,103.908333,
SIXTH AVENUE CENTRE,Singapore,1.33143,103.793915,
SIXTH AVENUE VILLE,Singapore,1.329502,103.79486,
SKIES MILTONIA,Singapore,1.418131,103.848135,
SKT MANSIONS,Singapore,1.314733,103.882658,
SKY GREEN,Singapore,1.428903,103.720192,
SKY HABITAT,Singapore,1.352312,103.851687,
SKY VUE,Singapore,1.35254,103.850844,
SKY@ELEVEN,Singapore,1.331265,103.84061,
SKYLINE 360 @ SAINT THOMAS WALK,Singapore,1.296957,103.835747,
SKYLINE @ ORCHARD BOULEVARD,Singapore,1.303201,103.829542,
SKYLINE RESIDENCES,Singapore,1.271482,103.807708,
SKYPARK,Singapore,1.285312,103.861132,
SKYPARK RESIDENCES,Singapore,1.4435,103.819729,
SKYSUITES17,Singapore,1.327367,103.847833,
SKYSUITES@ANSON,Singapore,1.2745,103.844768,
SMAILING COURT,Singapore,1.315549,103.897845,
SMART SUITES,Singapore,1.315149,103.88382,
SOHO 188,Singapore,1.311248,103.853368,
SOHO @ FARRER,Singapore,1.310856,103.852698,
SOLEIL @ SINARAN,Singapore,1.319445,103.845265,
SOMMERVILLE GRANDEUR,Singapore,1.315899,103.80667,
SOMMERVILLE LOFT,Singapore,1.34337,103.869941,
SOMMERVILLE PARK,Singapore,1.312212,103.806916,
SOMMERVILLE REGENCY,Singapore,1.346056,103.868174,
SOMMERVILLE RESIDENCES,Singapore,1.346056,103.868174,
SONG LANG GREEN,Singapore,1.302131,103.896782,
SOO CHOW GARDEN,Singapore,1.353866,103.831233,
SOPHIA 98,Singapore,1.302211,103.847076,
SOPHIA CREST,Singapore,1.302084,103.84737,
SOPHIA FLATS,Singapore,1.301746,103.848749,
SOPHIA HILLS,Singapore,1.30081,103.846905,
SOPHIA LODGE,Singapore,1.301822,103.848066,
SOPHIA RESIDENCE,Singapore,1.301278,103.848423,
SOPHIA VIEW,Singapore,1.302084,103.84737,
SOPHIA VILLE,Singapore,1.302673,103.846327,
SOUTH UNION PARK,Singapore,1.325029,103.913309,
SOUTHAVEN I,Singapore,1.291747,103.85525,
SOUTHAVEN II,Singapore,1.345825,103.773303,
SOUTHBANK,Singapore,1.306308,103.86429,
SOVEREIGN @ SIMON,Singapore,1.36567,103.883,
SPACE @ KOVAN,Singapore,1.354624,103.876902,
SPANISH VILLAGE,Singapore,1.315525,103.805743,
SPAZIO @ KOVAN,Singapore,1.354713,103.878288,
SPOTTISWOODE 18,Singapore,1.275452,103.837591,
SPOTTISWOODE PARK,Singapore,1.275299,103.837268,
SPOTTISWOODE RESIDENCES,Singapore,1.275481,103.836827,
SPOTTISWOODE SUITES,Singapore,1.276004,103.837283,
SPRING @ KATONG,Singapore,1.305512,103.903069,
SPRING @ LANGSAT,Singapore,1.315384,103.902898,
SPRING GARDENS,Singapore,1.284351,103.844529,
SPRING GROVE,Singapore,1.297957,103.827422,
SPRING PARK ESTATE,Singapore,1.314633,103.934633,
SPRING RESIDENCES,Singapore,1.316208,103.830536,
SPRINGDALE CONDOMINIUM,Singapore,1.34833,103.772381,
SPRINGDEW TERRACE,Singapore,1.278093,103.790494,
SPRINGHILL,Singapore,1.440697,103.823946,
SPRINGHILL TERRACE,Singapore,1.440697,103.823946,
SPRINGLEAF GARDEN,Singapore,1.39825,103.821958,
SPRINGLEAF TOWER,Singapore,1.275368,103.846399,
SPRINGLEAF VILLAS,Singapore,1.400086,103.823817,
SPRINGVALE,Singapore,1.312916,103.92475,
SPRINGWELL MANSIONS,Singapore,1.320696,103.952694,
SPRINGWOOD,Singapore,1.279067,103.790273,
SRI MENANTI ESTATE,Singapore,1.294869,103.822927,
ST ANNE'S WOOD,Singapore,1.391428,103.903167,
ST FRANCIS COURT,Singapore,1.324752,103.863684,
ST FRANCIS LODGE,Singapore,1.324953,103.864097,
ST MARTIN RESIDENCE,Singapore,1.29407,103.838165,
ST MARTIN'S,Singapore,1.30583,103.824394,
ST MICHAEL REGENCY,Singapore,1.326222,103.863635,
ST MICHAEL'S CONDOMINIUM,Singapore,1.326501,103.862705,
ST MICHAEL'S PLACE,Singapore,1.325158,103.865382,
ST NICHOLAS VIEW,Singapore,1.373542,103.832831,
ST PATRICK'S COURT,Singapore,1.308075,103.912202,
ST PATRICK'S GREEN,Singapore,1.309281,103.914345,
ST PATRICK'S GROVE,Singapore,1.308063,103.912676,
ST PATRICK'S LOFT,Singapore,1.308654,103.915944,
ST PATRICK'S RESIDENCES,Singapore,1.307678,103.914898,
ST REGIS RESIDENCES SINGAPORE,Singapore,1.305799,103.825957,
ST THOMAS COURT,Singapore,1.297557,103.836215,
ST THOMAS LODGE,Singapore,1.2978,103.8357,
ST THOMAS SUITES,Singapore,1.298347,103.83585,
ST THOMAS VILLE,Singapore,1.297643,103.835952,
STADIA,Singapore,1.355652,103.8759,
STARFIRE @ SOPHIA,Singapore,1.302084,103.84737,
STARLIGHT SUITES,Singapore,1.293816,103.837189,
STARPOINT,Singapore,1.288607,103.777726,
STARVILLE,Singapore,1.327573,103.911067,
STELLAR RV,Singapore,1.295056,103.828864,
STEVENS LOFT,Singapore,1.317463,103.82635,
